time(millisecond),datetime(utc),latitude,longitude,height_above_takeoff(feet),altitude_above_seaLevel(feet),speed(mph),distance(feet),satellites,gpslevel,voltage(v),max_altitude(feet),max_ascent(feet),max_speed(mph),max_distance(feet), xSpeed(mph), ySpeed(mph), zSpeed(mph), compass_heading(degrees), pitch(degrees), roll(degrees),isPhoto,isVideo,rc_elevator,rc_aileron,rc_throttle,rc_rudder,gimbal_heading(degrees),gimbal_pitch(degrees),battery_percent,voltageCell1,voltageCell2,voltageCell3,voltageCell4,voltageCell5,voltageCell6,current(A),battery_temperature(f),altitude(feet),ascent(feet),flycStateRaw,flycState,message
0,5/2/2019 16:46,-3.251866988,-72.90721701,0,420.4985988,0,0,15,5,0,420.4985988,0,0,0,0,0,0,348.7,2.2,-0.6,0,0,1024,1024,1024,1024,348.7,0,97,4.311,4.302,4.291,4.294,0,0,0,92.12,420.4985988,0,41,Motors_Started,
100,5/2/2019 16:46,-3.251866979,-72.90721707,0,420.4985988,0,0.022417914,15,5,0,420.4985988,0,0,0.022417914,0,0,0,348.7,2.2,-0.6,0,0,1024,1024,1024,1024,348.7,0,97,4.311,4.302,4.291,4.294,0,0,0,92.12,420.4985988,0,41,Motors_Started,
200,5/2/2019 16:46,-3.251866844,-72.90721696,0,420.4985988,0,0.05539075,15,5,0,420.4985988,0,0,0.05539075,0,0,0,348.7,2.2,-0.6,0,0,1024,1024,1024,1024,348.7,0,97,4.311,4.302,4.291,4.294,0,0,0,92.12,420.4985988,0,41,Motors_Started,
300,5/2/2019 16:46,-3.251866822,-72.90721701,0,420.4985988,0,0.060613519,15,5,0,420.4985988,0,0,0.060613519,0,0,0,348.7,2.2,-0.6,0,0,1024,1024,1024,1024,348.7,0,97,4.311,4.302,4.291,4.294,0,0,0,92.12,420.4985988,0,41,Motors_Started,
400,5/2/2019 16:46,-3.251866857,-72.90721707,0,420.4985988,0,0.052503939,15,5,0,420.4985988,0,0,0.060613519,0,0,0,348.8,2.2,-0.6,0,0,1024,1024,1024,1024,348.7,0,97,4.311,4.302,4.291,4.294,0,0,0,92.12,420.4985988,0,41,Motors_Started,
500,5/2/2019 16:46,-3.251866839,-72.90721712,0,420.4985988,0,0.067083664,15,5,0,420.4985988,0,0,0.067083664,0,0,0,348.7,2.2,-0.6,0,0,1024,1024,1024,1024,348.7,0,97,4.311,4.302,4.291,4.294,0,0,0,92.12,420.4985988,0,41,Motors_Started,
600,5/2/2019 16:46,-3.25186687,-72.90721703,0,420.4985988,0,0.043585303,15,5,0,420.4985988,0,0,0.067083664,0,0,0,348.7,2.2,-0.6,0,0,1024,1024,1024,1024,348.7,0,97,4.311,4.302,4.291,4.294,0,0,0,92.12,420.4985988,0,41,Motors_Started,
700,5/2/2019 16:46,-3.251866855,-72.90721706,0,420.4985988,0,0.05219554,15,5,0,420.4985988,0,0,0.067083664,0,0,0,348.8,2.2,-0.6,0,0,1024,1024,1024,1024,348.7,0,97,4.311,4.302,4.291,4.294,0,0,0,92.12,420.4985988,0,41,Motors_Started,Setting new Return-To-Home altitude to 30m (98 ft). Data Recorder File Index is 21. Setting new Maximum Flight Altitude to 300m (984 ft)
800,5/2/2019 16:46,-3.251866881,-72.90721714,0,420.4985988,0,0.061266406,16,5,0,420.4985988,0,0,0.067083664,0,0,0,348.8,2.2,-0.6,0,0,1024,1024,1024,1024,348.7,0,97,4.311,4.302,4.291,4.294,0,0,0,92.12,420.4985988,0,41,Motors_Started,
900,5/2/2019 16:46,-3.251866869,-72.90721718,0,420.4985988,0,0.075177168,16,5,0,420.4985988,0,0,0.075177168,0,0,0,348.8,2.2,-0.6,0,0,1024,1024,1024,1024,348.7,0,97,4.311,4.302,4.291,4.294,0,0,0,92.12,420.4985988,0,41,Motors_Started,
1000,5/2/2019 16:46,-3.251866744,-72.9072171,0,420.4985988,0,0.095523953,15,5,0,420.4985988,0,0,0.095523953,0,0,0,348.8,2.2,-0.6,0,0,1024,1024,1024,1024,348.7,0,97,4.311,4.302,4.291,4.294,0,0,0,92.12,420.4985988,0,41,Motors_Started,
1100,5/2/2019 16:46,-3.25186672,-72.90721713,0,420.4985988,0,0.107314964,15,5,0,420.4985988,0,0,0.107314964,0,0,0,348.8,2.1,-0.6,0,0,1024,1024,1024,1024,348.7,0,97,4.311,4.302,4.291,4.294,0,0,0,92.12,420.4985988,0,41,Motors_Started,
1200,5/2/2019 16:46,-3.251866758,-72.90721722,0,420.4985988,0,0.113138783,15,5,17.197,420.4985988,0,0,0.113138783,0,0,0,348.7,2.2,-0.6,0,0,1024,1024,1024,1024,348.7,0,97,4.311,4.302,4.291,4.294,0,0,2.194,92.12,420.4985988,0,11,AutoTakeoff,
1300,5/2/2019 16:46,-3.251866739,-72.90721725,0,420.4985988,0,0.125935043,15,5,17.197,420.4985988,0,0,0.125935043,0,0,0,348.8,2.2,-0.6,0,0,1024,1024,1024,1024,348.7,0,97,4.311,4.302,4.291,4.294,0,0,2.194,92.12,420.4985988,0,11,AutoTakeoff,
1400,5/2/2019 16:46,-3.251866771,-72.90721733,0,420.4985988,0,0.140626645,15,5,17.197,420.4985988,0,0,0.140626645,0,0,0,348.7,2.2,-0.6,0,0,1024,1024,1024,1024,348.7,0,97,4.311,4.302,4.291,4.294,0,0,2.194,92.12,420.4985988,0,11,AutoTakeoff,
1500,5/2/2019 16:46,-3.251866756,-72.90721737,0,420.4985988,0,0.154394034,15,5,17.197,420.4985988,0,0,0.154394034,0,0,0,348.7,2.2,-0.6,0,0,1024,1024,1024,1024,348.7,0,97,4.311,4.302,4.291,4.294,0,0,2.194,92.12,420.4985988,0,11,AutoTakeoff,
1600,5/2/2019 16:46,-3.251866783,-72.90721729,0,420.4985988,0,0.127500332,15,5,17.197,420.4985988,0,0,0.154394034,0,0,0,348.7,2.1,-0.6,0,0,1024,1024,1024,1024,348.7,0,97,4.311,4.302,4.291,4.294,0,0,2.194,92.12,420.4985988,0,11,AutoTakeoff,
1700,5/2/2019 16:46,-3.25186677,-72.90721732,0,420.4985988,0,0.137655516,15,5,17.197,420.4985988,0,0,0.154394034,0,0,0,348.7,2.1,-0.6,0,0,1024,1024,1024,1024,348.7,0,97,4.311,4.302,4.291,4.294,0,0,2.194,92.12,420.4985988,0,11,AutoTakeoff,
1800,5/2/2019 16:46,-3.251866643,-72.90721727,0,420.4985988,0,0.156842853,15,5,17.197,420.4985988,0,0,0.156842853,0,0,0,348.5,1.9,-0.6,0,0,1024,1024,1024,1024,348.7,0,97,4.311,4.302,4.291,4.294,0,0,2.194,92.12,420.4985988,0,11,AutoTakeoff,
1900,5/2/2019 16:46,-3.251866617,-72.90721728,0,420.4985988,0,0.168024612,15,5,17.197,420.4985988,0,0,0.168024612,0,0,0,348.2,-0.6,-0.6,0,0,1024,1024,1024,1024,348.7,0,97,4.311,4.302,4.291,4.294,0,0,2.194,92.12,420.4985988,0,11,AutoTakeoff,
2000,5/2/2019 16:46,-3.25186663,-72.9072174,0,420.4985988,0,0.19326477,15,5,17.197,420.4985988,0,0,0.19326477,0,0,-0.223694,348.2,-4.1,-0.5,0,0,1024,1024,1024,1024,348.7,0,97,4.311,4.302,4.291,4.294,0,0,2.194,92.12,420.4985988,0,11,AutoTakeoff,
2100,5/2/2019 16:46,-3.251866536,-72.90721746,0,420.4985988,0.223694,0.231875336,15,5,17.197,420.4985988,0,0.223694,0.231875336,0.223694,0,-0.447388,348.2,-4,-0.3,0,0,1024,1024,1024,1024,348.7,0,97,4.311,4.302,4.291,4.294,0,0,2.194,92.12,420.4985988,0,11,AutoTakeoff,
2200,5/2/2019 16:46,-3.251866436,-72.90721745,0,420.4985988,0.223694,0.25767094,15,5,17.197,420.4985988,0,0.223694,0.25767094,0.223694,0,-0.894776,348.2,-0.7,0.3,0,0,1024,1024,1024,1024,348.7,0,97,4.311,4.302,4.291,4.294,0,0,2.194,92.12,420.4985988,0,11,AutoTakeoff,
2300,5/2/2019 16:46,-3.251866259,-72.9072175,0.328084,420.8266828,0.223694,0.321372386,15,5,17.197,420.8266828,0.328084,0.223694,0.321372386,0.223694,0,-0.894776,348.3,1.5,0.3,0,0,1024,1024,1024,1024,348.7,0,97,4.311,4.302,4.291,4.294,0,0,2.194,92.12,420.8266828,0.328084,11,AutoTakeoff,
2400,5/2/2019 16:46,-3.251866122,-72.90721773,0.328084,420.8266828,0.223694,0.41029857,14,5,17.197,420.8266828,0.328084,0.223694,0.41029857,0.223694,0,-0.894776,348.1,2.3,0.2,0,0,1024,1024,1024,1024,348.7,0,97,4.311,4.302,4.291,4.294,0,0,2.194,92.12,420.8266828,0.328084,11,AutoTakeoff,
2500,5/2/2019 16:46,-3.251865988,-72.90721776,0.328084,420.8266828,0.223694,0.456702771,14,5,17.073,420.8266828,0.328084,0.223694,0.456702771,0.223694,0,-0.894776,348.1,2.4,0.1,0,0,1024,1024,1024,1024,348.7,0,97,4.282,4.269,4.26,4.262,0,0,6.287,92.12,420.8266828,0.328084,11,AutoTakeoff,
2600,5/2/2019 16:46,-3.251866463,-72.90721714,0.656168,421.1547668,0,0.196873366,14,5,17.073,421.1547668,0.656168,0.223694,0.456702771,0,0,-0.671082,348.1,2.2,-0.1,0,0,1024,1024,1024,1024,348.7,0,97,4.282,4.269,4.26,4.262,0,0,6.287,92.12,421.1547668,0.656168,11,AutoTakeoff,
2700,5/2/2019 16:46,-3.251866439,-72.90721708,0.656168,421.1547668,0,0.201913064,14,5,17.073,421.1547668,0.656168,0.223694,0.456702771,0,0,-0.671082,348.2,1.6,-0.3,0,0,1024,1024,1024,1024,348.7,0,97,4.282,4.269,4.26,4.262,0,0,6.287,92.12,421.1547668,0.656168,11,AutoTakeoff,
2800,5/2/2019 16:46,-3.251866446,-72.9072176,0.984252,421.4828508,0,0.293015757,14,5,17.073,421.4828508,0.984252,0.223694,0.456702771,0,0,-0.894776,348.1,1.1,-0.6,0,0,1024,1024,1024,1024,348.7,0,97,4.282,4.269,4.26,4.262,0,0,6.287,92.12,421.4828508,0.984252,11,AutoTakeoff,Home Point Recorded. RTH Altitude:  30m.
2900,5/2/2019 16:46,-3.251866467,-72.90721759,0.984252,421.4828508,0,0.282916676,14,5,17.073,421.4828508,0.984252,0.223694,0.456702771,0,0,-0.894776,348.2,0.9,-1,0,0,1024,1024,1024,1024,348.7,0,97,4.282,4.269,4.26,4.262,0,0,6.287,92.12,421.4828508,0.984252,11,AutoTakeoff,
3000,5/2/2019 16:46,-3.251866199,-72.90721785,1.312336,421.8109348,0,0.419983609,14,5,17.073,421.8109348,1.312336,0.223694,0.456702771,0,0,-0.894776,348.2,0.9,-0.8,0,0,1024,1024,1024,1024,348.7,0,97,4.282,4.269,4.26,4.262,0,0,6.287,92.12,421.8109348,1.312336,11,AutoTakeoff,
3100,5/2/2019 16:46,-3.251866222,-72.90721787,1.312336,421.8109348,0,0.418848439,14,5,17.073,421.8109348,1.312336,0.223694,0.456702771,0,0,-0.894776,348.2,0.7,-0.8,0,0,1024,1024,1024,1024,348.7,0,97,4.282,4.269,4.26,4.262,0,0,6.287,92.12,421.8109348,1.312336,11,AutoTakeoff,
3200,5/2/2019 16:46,-3.251866165,-72.90721786,1.312336,421.8109348,0,0.43123689,15,5,17.073,421.8109348,1.312336,0.223694,0.456702771,0,0,-0.894776,348.4,0.5,-0.7,0,0,1024,1024,1024,1024,348.6,0,97,4.282,4.269,4.26,4.262,0,0,6.287,92.12,421.8109348,1.312336,11,AutoTakeoff,
3300,5/2/2019 16:46,-3.251866197,-72.90721788,1.64042,422.1390188,0,0.428471142,15,5,17.073,422.1390188,1.64042,0.223694,0.456702771,0,0,-0.894776,348.5,0.2,-0.8,0,0,1024,1024,1024,1024,348.7,0,97,4.282,4.269,4.26,4.262,0,0,6.287,92.12,422.1390188,1.64042,11,AutoTakeoff,
3400,5/2/2019 16:46,-3.251866509,-72.90721787,1.64042,422.1390188,0,0.35929135,15,5,17.073,422.1390188,1.64042,0.223694,0.456702771,0,0,-1.11847,348.5,0.1,-0.8,0,0,1024,1024,1024,1024,348.7,0,97,4.282,4.269,4.26,4.262,0,0,6.287,92.12,422.1390188,1.64042,11,AutoTakeoff,
3500,5/2/2019 16:46,-3.251866575,-72.9072179,1.968504,422.4671028,0,0.35858925,15,5,17.073,422.4671028,1.968504,0.223694,0.456702771,0,0,-1.11847,348.6,0,-0.7,0,0,1024,1024,1024,1024,348.6,0,97,4.282,4.269,4.26,4.262,0,0,6.287,92.12,422.4671028,1.968504,11,AutoTakeoff,
3600,5/2/2019 16:46,-3.251866933,-72.90721834,1.968504,422.4671028,0,0.484012483,16,5,17.048,422.4671028,1.968504,0.223694,0.484012483,0,0,-1.11847,348.5,-0.1,-0.6,0,0,1024,1024,1024,1024,348.7,0,97,4.276,4.262,4.253,4.256,0,0,7.251,92.3,422.4671028,1.968504,11,AutoTakeoff,
3700,5/2/2019 16:46,-3.251867026,-72.90721842,2.296588,422.7951868,0,0.514471801,16,5,17.048,422.7951868,2.296588,0.223694,0.514471801,0,0,-1.11847,348.5,-0.1,-0.2,0,0,1024,1024,1024,1024,348.6,0,97,4.276,4.262,4.253,4.256,0,0,7.251,92.3,422.7951868,2.296588,11,AutoTakeoff,
3800,5/2/2019 16:46,-3.251866714,-72.90721863,2.296588,422.7951868,0,0.597001331,16,5,17.048,422.7951868,2.296588,0.223694,0.597001331,0,0,-1.11847,348.4,0,-0.2,0,0,1024,1024,1024,1024,348.6,0,97,4.276,4.262,4.253,4.256,0,0,7.251,92.3,422.7951868,2.296588,11,AutoTakeoff,
3900,5/2/2019 16:46,-3.251866763,-72.90721873,2.624672,423.1232708,0,0.631026923,16,5,17.048,423.1232708,2.624672,0.223694,0.631026923,0,0,-1.11847,348.3,0.1,-0.1,0,0,1024,1024,1024,1024,348.6,0,97,4.276,4.262,4.253,4.256,0,0,7.251,92.3,423.1232708,2.624672,11,AutoTakeoff,
4000,5/2/2019 16:46,-3.251866489,-72.90721857,2.624672,423.1232708,0,0.597401594,16,5,17.048,423.1232708,2.624672,0.223694,0.631026923,0,0,-0.894776,348.3,0.4,0.1,0,0,1024,1024,1024,1024,348.6,0,97,4.276,4.262,4.253,4.256,0,0,7.251,92.3,423.1232708,2.624672,11,AutoTakeoff,
4100,5/2/2019 16:46,-3.251866498,-72.90721864,2.952756,423.4513548,0,0.621010519,16,5,17.048,423.4513548,2.952756,0.223694,0.631026923,0,0,-0.894776,348.3,0.9,0,0,0,1024,1024,1024,1024,348.6,0,97,4.276,4.262,4.253,4.256,0,0,7.251,92.3,423.4513548,2.952756,11,AutoTakeoff,
4200,5/2/2019 16:46,-3.251866875,-72.90721863,2.952756,423.4513548,0,0.590131252,16,5,17.048,423.4513548,2.952756,0.223694,0.631026923,0,0,-0.894776,348.3,1,-0.5,0,0,1024,1024,1024,1024,348.6,0,97,4.276,4.262,4.253,4.256,0,0,7.251,92.3,423.4513548,2.952756,11,AutoTakeoff,
4300,5/2/2019 16:46,-3.251866926,-72.90721867,3.28084,423.7794388,0,0.606007237,16,5,17.048,423.7794388,3.28084,0.223694,0.631026923,0,0,-0.894776,348.4,0.7,-0.9,0,0,1024,1024,1024,1024,348.6,0,97,4.276,4.262,4.253,4.256,0,0,7.251,92.3,423.7794388,3.28084,11,AutoTakeoff,
4400,5/2/2019 16:46,-3.251866703,-72.90721837,3.28084,423.7794388,0,0.506240174,16,5,17.048,423.7794388,3.28084,0.223694,0.631026923,0,0,-0.894776,348.2,0.5,-0.9,0,0,1024,1024,1024,1024,348.6,0,97,4.276,4.262,4.253,4.256,0,0,7.251,92.3,423.7794388,3.28084,11,AutoTakeoff,
4500,5/2/2019 16:46,-3.25186673,-72.90721839,3.28084,423.7794388,0,0.512821539,16,5,17.048,423.7794388,3.28084,0.223694,0.631026923,0,0,-0.894776,348.3,0.4,-0.9,0,0,1024,1024,1024,1024,348.6,0,97,4.276,4.262,4.253,4.256,0,0,7.251,92.3,423.7794388,3.28084,6,P-GPS,
4600,5/2/2019 16:46,-3.251866538,-72.90721792,3.608924,424.1075228,0,0.371069566,15,5,17.034,424.1075228,3.608924,0.223694,0.631026923,0,0,-0.671082,348.2,0.7,-1,0,0,1024,1024,1024,1024,348.6,0,97,4.274,4.259,4.25,4.252,0,0,6.942,92.3,424.1075228,3.608924,6,P-GPS,
4700,5/2/2019 16:46,-3.251866537,-72.90721791,3.608924,424.1075228,0,0.366729014,15,5,17.034,424.1075228,3.608924,0.223694,0.631026923,0,0,-0.447388,348.2,0.9,-1,0,0,1024,1024,1024,1024,348.6,0,97,4.274,4.259,4.25,4.252,0,0,6.942,92.3,424.1075228,3.608924,6,P-GPS,
4800,5/2/2019 16:46,-3.251866217,-72.90721797,3.608924,424.1075228,0,0.448188991,16,5,17.034,424.1075228,3.608924,0.223694,0.631026923,0,0,-0.223694,348.2,0.9,-0.7,0,0,1024,1024,1024,1024,348.6,0,97,4.274,4.259,4.25,4.252,0,0,6.942,92.3,424.1075228,3.608924,6,P-GPS,
4900,5/2/2019 16:46,-3.251866185,-72.90721796,3.608924,424.1075228,0,0.454809726,16,5,17.034,424.1075228,3.608924,0.223694,0.631026923,0,0,0,348.2,0.8,-0.5,0,0,1024,1024,1024,1024,348.6,0,97,4.274,4.259,4.25,4.252,0,0,6.942,92.3,424.1075228,3.608924,6,P-GPS,
5000,5/2/2019 16:46,-3.25186637,-72.9072177,3.608924,424.1075228,0,0.336423895,16,5,17.034,424.1075228,3.608924,0.223694,0.631026923,0,0,0,348.3,0.9,-0.3,0,0,1024,1024,1024,1024,348.6,0,97,4.274,4.259,4.25,4.252,0,0,6.942,92.3,424.1075228,3.608924,6,P-GPS,
5100,5/2/2019 16:46,-3.251866355,-72.90721766,3.608924,424.1075228,0,0.329708016,16,5,17.034,424.1075228,3.608924,0.223694,0.631026923,0,0,0,348.4,0.9,-0.4,0,0,1024,1024,1024,1024,348.6,0,97,4.274,4.259,4.25,4.252,0,0,6.942,92.3,424.1075228,3.608924,6,P-GPS,
5200,5/2/2019 16:46,-3.25186667,-72.90721769,3.608924,424.1075228,0,0.273532161,16,5,17.034,424.1075228,3.608924,0.223694,0.631026923,0,0,0,348.4,1,-0.5,0,0,1024,1024,1024,1024,348.6,0,97,4.274,4.259,4.25,4.252,0,0,6.942,92.3,424.1075228,3.608924,6,P-GPS,
5300,5/2/2019 16:46,-3.251866692,-72.90721765,3.608924,424.1075228,0,0.256380914,16,5,17.034,424.1075228,3.608924,0.223694,0.631026923,0,0,0,348.4,1,-0.6,0,0,1024,1024,1024,1024,348.6,0,97,4.274,4.259,4.25,4.252,0,0,6.942,92.3,424.1075228,3.608924,6,P-GPS,
5400,5/2/2019 16:46,-3.251866531,-72.90721769,3.608924,424.1075228,0,0.297554471,16,5,17.034,424.1075228,3.608924,0.223694,0.631026923,0,0,0,348.4,1,-0.6,0,0,1024,1024,1024,1024,348.6,0,97,4.274,4.259,4.25,4.252,0,0,6.942,92.3,424.1075228,3.608924,6,P-GPS,
5500,5/2/2019 16:46,-3.251866539,-72.90721764,3.608924,424.1075228,0,0.283232293,16,5,17.034,424.1075228,3.608924,0.223694,0.631026923,0,0,0,348.3,1,-0.8,0,0,1024,1024,1024,1024,348.6,0,97,4.274,4.259,4.25,4.252,0,0,6.942,92.3,424.1075228,3.608924,6,P-GPS,
5600,5/2/2019 16:46,-3.251866836,-72.90721755,3.608924,424.1075228,0,0.204722447,16,5,17.034,424.1075228,3.608924,0.223694,0.631026923,0,0,0,348.3,1.1,-0.7,0,0,1024,1024,1024,1024,348.6,0,97,4.274,4.259,4.249,4.252,0,0,6.746,92.3,424.1075228,3.608924,6,P-GPS,
5700,5/2/2019 16:46,-3.25186688,-72.90721751,3.608924,424.1075228,0,0.184506896,16,5,17.034,424.1075228,3.608924,0.223694,0.631026923,0,0,0,348.2,1.1,-0.4,0,0,1024,1024,1109,1024,348.6,0,97,4.274,4.259,4.249,4.252,0,0,6.746,92.3,424.1075228,3.608924,6,P-GPS,
5800,5/2/2019 16:46,-3.251867127,-72.90721759,3.608924,424.1075228,0,0.216034456,16,5,17.034,424.1075228,3.608924,0.223694,0.631026923,0,0,0,348.3,1,-0.3,0,0,1024,1024,1119,1024,348.6,0,97,4.274,4.259,4.249,4.252,0,0,6.746,92.3,424.1075228,3.608924,6,P-GPS,
5900,5/2/2019 16:46,-3.251867204,-72.90721754,3.608924,424.1075228,0,0.209385177,16,5,17.034,424.1075228,3.608924,0.223694,0.631026923,0,0,0,348.3,0.9,-0.2,0,0,1024,1024,1024,1024,348.6,0,97,4.274,4.259,4.249,4.252,0,0,6.746,92.3,424.1075228,3.608924,6,P-GPS,
6000,5/2/2019 16:46,-3.251867556,-72.9072173,3.608924,424.1075228,0,0.232883866,16,5,17.034,424.1075228,3.608924,0.223694,0.631026923,0,0,0,348.3,0.8,-0.3,0,0,1024,1024,1135,1024,348.6,0,97,4.274,4.259,4.249,4.252,0,0,6.746,92.3,424.1075228,3.608924,6,P-GPS,
6100,5/2/2019 16:46,-3.251867667,-72.90721723,3.608924,424.1075228,0,0.260072515,16,5,17.034,424.1075228,3.608924,0.223694,0.631026923,0,0,0,348.2,0.7,-0.5,0,0,1024,1024,1340,1024,348.6,0,97,4.274,4.259,4.249,4.252,0,0,6.746,92.3,424.1075228,3.608924,6,P-GPS,
6200,5/2/2019 16:46,-3.251867936,-72.90721703,3.608924,424.1075228,0,0.345793974,16,5,17.034,424.1075228,3.608924,0.223694,0.631026923,0,0,0,348.4,0.6,-0.3,0,0,1024,1024,1366,1024,348.6,0,97,4.274,4.259,4.249,4.252,0,0,6.746,92.3,424.1075228,3.608924,6,P-GPS,
6300,5/2/2019 16:46,-3.251868077,-72.90721692,3.608924,424.1075228,0,0.398369435,16,5,17.034,424.1075228,3.608924,0.223694,0.631026923,0,0,-0.447388,348.4,0.3,-0.2,0,0,1024,1024,1316,1024,348.6,0,97,4.274,4.259,4.249,4.252,0,0,6.746,92.3,424.1075228,3.608924,6,P-GPS,
6400,5/2/2019 16:46,-3.251868144,-72.90721677,3.937008,424.4356068,0,0.430682428,16,5,17.034,424.4356068,3.937008,0.223694,0.631026923,0,0,-1.342164,348.2,0.4,-0.4,0,0,1024,1024,1024,1024,348.6,0,97,4.274,4.259,4.249,4.252,0,0,6.746,92.3,424.4356068,3.937008,6,P-GPS,
6500,5/2/2019 16:46,-3.251868266,-72.90721666,3.937008,424.4356068,0,0.483871407,16,5,17.034,424.4356068,3.937008,0.223694,0.631026923,0,0,-1.565858,348.1,0.8,-0.5,0,0,1024,1024,1024,1024,348.6,0,97,4.274,4.259,4.249,4.252,0,0,6.746,92.3,424.4356068,3.937008,6,P-GPS,
6600,5/2/2019 16:46,-3.251868604,-72.90721654,4.265092,424.7636908,0,0.614005925,16,5,17.034,424.7636908,4.265092,0.223694,0.631026923,0,0,-1.11847,348.2,1.2,-0.6,0,0,1040,1024,1024,1024,348.6,0,97,4.274,4.259,4.249,4.252,0,0,6.746,92.3,424.7636908,4.265092,6,P-GPS,
6700,5/2/2019 16:46,-3.251868755,-72.90721642,4.265092,424.7636908,0,0.679432436,16,5,16.975,424.7636908,4.265092,0.223694,0.679432436,0,0,-0.671082,348.2,1.2,-0.6,0,0,1237,1024,1024,1024,348.6,0,97,4.25,4.242,4.239,4.244,0,0,7.537,92.48,424.7636908,4.265092,6,P-GPS,
6800,5/2/2019 16:46,-3.251868641,-72.90721647,4.593176,425.0917748,0,0.633740178,16,5,16.975,425.0917748,4.593176,0.223694,0.679432436,0,0,-0.223694,348.2,0.9,-0.6,0,0,1414,1024,1024,1024,348.6,0,97,4.25,4.242,4.239,4.244,0,0,7.537,92.48,425.0917748,4.593176,6,P-GPS,
6900,5/2/2019 16:46,-3.251868781,-72.90721637,4.593176,425.0917748,0,0.694635849,16,5,16.975,425.0917748,4.593176,0.223694,0.694635849,0,0,-0.223694,348.2,-1,-0.4,0,0,1438,1024,1024,1024,348.6,0,97,4.25,4.242,4.239,4.244,0,0,7.537,92.48,425.0917748,4.593176,6,P-GPS,
7000,5/2/2019 16:46,-3.251868687,-72.90721671,4.593176,425.0917748,0,0.629645689,16,5,16.975,425.0917748,4.593176,0.223694,0.694635849,0,0,0,348.3,-6.1,-0.4,0,0,1298,1024,1024,1024,348.6,0,97,4.25,4.242,4.239,4.244,0,0,7.537,92.48,425.0917748,4.593176,6,P-GPS,
7100,5/2/2019 16:46,-3.251868704,-72.90721666,4.593176,425.0917748,0.223694,0.639114194,16,5,16.975,425.0917748,4.593176,0.223694,0.694635849,0.223694,0,0,348.3,-9.8,-0.4,0,0,1045,1024,1024,1024,348.6,0,97,4.25,4.242,4.239,4.244,0,0,7.537,92.48,425.0917748,4.593176,6,P-GPS,
7200,5/2/2019 16:46,-3.25186824,-72.90721698,4.593176,425.0917748,0.671082,0.456863532,16,5,16.975,425.0917748,4.593176,0.671082,0.694635849,0.671082,0,0,348.4,-8.6,-0.4,0,0,1024,1024,1024,1024,348.6,0,97,4.25,4.242,4.239,4.244,0,0,7.537,92.48,425.0917748,4.593176,6,P-GPS,
7300,5/2/2019 16:46,-3.251867951,-72.90721701,4.593176,425.0917748,0.894776,0.351351717,16,5,16.975,425.0917748,4.593176,0.894776,0.694635849,0.894776,0,0,348.3,-2.9,-0.5,0,0,1321,1024,1024,1024,348.6,0,97,4.25,4.242,4.239,4.244,0,0,7.537,92.48,425.0917748,4.593176,6,P-GPS,
7400,5/2/2019 16:46,-3.251867497,-72.90721729,4.593176,425.0917748,0.9171454,0.211984915,15,5,16.975,425.0917748,4.593176,0.9171454,0.694635849,0.894776,-0.223694,0,348.3,1.6,-0.5,0,0,1348,1024,1024,1024,348.6,0,97,4.25,4.242,4.239,4.244,0,0,7.537,92.48,425.0917748,4.593176,6,P-GPS,
7500,5/2/2019 16:46,-3.251867145,-72.90721737,4.593176,425.0917748,0.894776,0.142046921,15,5,16.975,425.0917748,4.593176,0.9171454,0.694635849,0.894776,0,0,348.4,0,-0.4,0,0,1337,1024,1024,1024,348.6,0,97,4.25,4.242,4.239,4.244,0,0,7.537,92.48,425.0917748,4.593176,6,P-GPS,
7600,5/2/2019 16:46,-3.251866779,-72.90721734,4.593176,425.0917748,0.9171454,0.141165031,15,5,16.975,425.0917748,4.593176,0.9171454,0.694635849,0.894776,-0.223694,0,348.2,-3.2,-0.4,0,0,1349,1024,1024,1024,348.6,0,97,4.25,4.242,4.239,4.244,0,0,7.537,92.48,425.0917748,4.593176,6,P-GPS,
7700,5/2/2019 16:46,-3.251866362,-72.90721742,4.593176,425.0917748,1.1408394,0.272215888,15,5,17.023,425.0917748,4.593176,1.1408394,0.694635849,1.11847,-0.223694,0,347.9,-4.7,-0.3,0,0,1350,1024,1024,1024,348.6,0,97,4.268,4.254,4.245,4.248,0,0,6.617,92.48,425.0917748,4.593176,6,P-GPS,
7800,5/2/2019 16:46,-3.25186587,-72.90721762,4.593176,425.0917748,1.3645334,0.464498046,16,5,17.023,425.0917748,4.593176,1.3645334,0.694635849,1.342164,-0.223694,0,347.8,-5.1,-0.3,0,0,1349,1024,1024,1024,348.6,0,97,4.268,4.254,4.245,4.248,0,0,6.617,92.48,425.0917748,4.593176,6,P-GPS,
7900,5/2/2019 16:46,-3.251865302,-72.90721774,4.593176,425.0917748,1.5882274,0.670505271,16,5,17.023,425.0917748,4.593176,1.5882274,0.694635849,1.565858,-0.223694,0,347.8,-5.2,-0.3,0,0,1339,1024,1024,997,348.6,0,97,4.268,4.254,4.245,4.248,0,0,6.617,92.48,425.0917748,4.593176,6,P-GPS,
8000,5/2/2019 16:46,-3.251864644,-72.90721792,4.593176,425.0917748,1.8119214,0.917319583,16,5,17.023,425.0917748,4.593176,1.8119214,0.917319583,1.789552,-0.223694,0,347.8,-5,-0.4,0,0,1322,1024,1024,718,348.6,0,97,4.268,4.254,4.245,4.248,0,0,6.617,92.48,425.0917748,4.593176,6,P-GPS,
8100,5/2/2019 16:46,-3.251863913,-72.90721808,4.593176,425.0917748,2.0356154,1.187798594,16,5,17.023,425.0917748,4.593176,2.0356154,1.187798594,2.013246,-0.223694,0,347.7,-4.8,-0.6,0,0,1180,1024,1024,728,348.4,0,97,4.268,4.254,4.245,4.248,0,0,6.617,92.48,425.0917748,4.593176,6,P-GPS,
8200,5/2/2019 16:46,-3.251863395,-72.90721852,4.593176,425.0917748,2.2816788,1.421683116,16,5,17.023,425.0917748,4.593176,2.2816788,1.421683116,2.23694,-0.447388,0,346.9,-4,-0.5,0,0,1024,1024,1024,816,347.6,0,97,4.268,4.254,4.245,4.248,0,0,6.617,92.48,425.0917748,4.593176,6,P-GPS,
8300,5/2/2019 16:46,-3.251862542,-72.90721874,4.593176,425.0917748,2.2816788,1.740019741,16,5,17.023,425.0917748,4.593176,2.2816788,1.740019741,2.23694,-0.447388,0,346.6,-1.4,-0.6,0,0,1024,1024,1024,939,346.9,0,97,4.268,4.254,4.245,4.248,0,0,6.617,92.48,425.0917748,4.593176,6,P-GPS,
8400,5/2/2019 16:46,-3.251862008,-72.90721875,4.593176,425.0917748,2.2816788,1.924891794,16,5,17.023,425.0917748,4.593176,2.2816788,1.924891794,2.23694,-0.447388,0,346.2,5.2,-0.7,0,0,1024,1024,1024,1024,346.6,0,97,4.268,4.254,4.245,4.248,0,0,6.617,92.48,425.0917748,4.593176,6,P-GPS,
8500,5/2/2019 16:46,-3.251861227,-72.90721896,4.593176,425.0917748,2.0579848,2.219334061,16,5,17.023,425.0917748,4.593176,2.2816788,2.219334061,2.013246,-0.447388,0,345.3,9.2,-0.9,0,0,1024,1024,1024,1024,346.5,0,97,4.268,4.254,4.245,4.248,0,0,6.617,92.48,425.0917748,4.593176,6,P-GPS,
8600,5/2/2019 16:46,-3.251860632,-72.9072196,4.593176,425.0917748,1.8119214,2.503149686,16,5,17.023,425.0917748,4.593176,2.2816788,2.503149686,1.789552,-0.223694,0,345,10.1,-0.9,0,0,1024,1024,1024,1024,346.5,0,97,4.268,4.254,4.245,4.248,0,0,6.617,92.48,425.0917748,4.593176,6,P-GPS,
8700,5/2/2019 16:46,-3.251860128,-72.9072198,4.593176,425.0917748,1.3645334,2.701371478,16,5,17.023,425.0917748,4.593176,2.2816788,2.701371478,1.342164,-0.223694,0,345.2,9.3,-0.8,0,0,1024,1024,1024,1024,346.5,0,97,4.268,4.254,4.245,4.248,0,0,6.617,92.48,425.0917748,4.593176,6,P-GPS,
8800,5/2/2019 16:46,-3.251859611,-72.90721954,4.593176,425.0917748,1.3645334,2.844662165,16,5,16.993,425.0917748,4.593176,2.2816788,2.844662165,1.11847,-0.223694,0,345.5,7.9,-0.6,0,0,1024,1024,1024,1176,346.5,0,97,4.265,4.246,4.238,4.244,0,0,7.084,92.48,425.0917748,4.593176,6,P-GPS,
8900,5/2/2019 16:46,-3.251859333,-72.90721965,4.593176,425.0917748,0.9171454,2.953592614,16,5,16.993,425.0917748,4.593176,2.2816788,2.953592614,0.894776,-0.223694,0,345.6,6.6,-0.4,0,0,1024,1024,1024,1390,346.5,0,97,4.265,4.246,4.238,4.244,0,0,7.084,92.48,425.0917748,4.593176,6,P-GPS,
9000,5/2/2019 16:46,-3.251859048,-72.90721994,4.593176,425.0917748,0.671082,3.087519784,16,5,16.993,425.0917748,4.593176,2.2816788,3.087519784,0.671082,0,0,346,5.7,-0.4,0,0,1024,1024,1024,1469,347.1,0,97,4.265,4.246,4.238,4.244,0,0,7.084,92.48,425.0917748,4.593176,6,P-GPS,
9100,5/2/2019 16:46,-3.251858936,-72.90722004,4.593176,425.0917748,0.671082,3.138087371,16,5,16.993,425.0917748,4.593176,2.2816788,3.138087371,0.447388,0,0,347.6,5,-0.5,0,0,1024,1024,1024,1383,348.7,0,97,4.265,4.246,4.238,4.244,0,0,7.084,92.48,425.0917748,4.593176,6,P-GPS,
9200,5/2/2019 16:46,-3.251858927,-72.90722043,4.593176,425.0917748,0.223694,3.193753383,16,5,16.993,425.0917748,4.593176,2.2816788,3.193753383,0.223694,0,0,349.8,4.1,-0.3,0,0,1024,1024,1024,1024,351,0,97,4.265,4.246,4.238,4.244,0,0,7.084,92.48,425.0917748,4.593176,6,P-GPS,
9300,5/2/2019 16:46,-3.251858934,-72.90722052,4.593176,425.0917748,0.223694,3.205249446,16,5,16.993,425.0917748,4.593176,2.2816788,3.205249446,0.223694,0,0,350.3,3.5,0,0,0,1064,1024,1024,1024,351.9,0,97,4.265,4.246,4.238,4.244,0,0,7.084,92.48,425.0917748,4.593176,6,P-GPS,
9400,5/2/2019 16:46,-3.251858881,-72.90722039,4.593176,425.0917748,0,3.203786192,16,5,16.993,425.0917748,4.593176,2.2816788,3.205249446,0,0,0,350.2,2.9,0,0,0,1524,1024,1024,1024,351.9,0,97,4.265,4.246,4.238,4.244,0,0,7.084,92.48,425.0917748,4.593176,6,P-GPS,
9500,5/2/2019 16:46,-3.251858953,-72.90722045,4.593176,425.0917748,0,3.188287504,16,5,16.993,425.0917748,4.593176,2.2816788,3.205249446,0,0,0,350.3,2,-0.2,0,0,1684,1024,1024,1024,351.9,0,97,4.265,4.246,4.238,4.244,0,0,7.084,92.48,425.0917748,4.593176,6,P-GPS,
9600,5/2/2019 16:46,-3.25185886,-72.90722057,4.593176,425.0917748,0,3.237053909,16,5,16.993,425.0917748,4.593176,2.2816788,3.237053909,0,0,0,350.3,-5.8,-0.4,0,0,1684,1024,1024,1024,351.9,0,97,4.265,4.246,4.238,4.244,0,0,7.084,92.48,425.0917748,4.593176,6,P-GPS,
9700,5/2/2019 16:46,-3.251858855,-72.90722065,4.593176,425.0917748,0.447388,3.250485668,16,5,16.993,425.0917748,4.593176,2.2816788,3.250485668,0.447388,0,0,350.4,-18.2,-0.4,0,0,1684,1024,1024,1247,351.9,0,97,4.265,4.246,4.238,4.244,0,0,7.084,92.48,425.0917748,4.593176,6,P-GPS,
9800,5/2/2019 16:46,-3.251858353,-72.9072207,4.593176,425.0917748,1.11847,3.425918745,16,5,16.996,425.0917748,4.593176,2.2816788,3.425918745,1.11847,0,0,350.4,-22.9,-0.3,0,0,1506,1024,1024,1684,351.9,0,96,4.265,4.25,4.24,4.24,0,0,7.113,92.66,425.0917748,4.593176,6,P-GPS,
9900,5/2/2019 16:46,-3.251857706,-72.90722087,4.593176,425.0917748,2.0356154,3.66715891,16,5,16.996,425.0917748,4.593176,2.2816788,3.66715891,2.013246,-0.223694,0,351.5,-23.8,-0.9,0,0,1463,1024,1024,1684,353.8,0,96,4.265,4.25,4.24,4.24,0,0,7.113,92.66,425.0917748,4.593176,6,P-GPS,
10000,5/2/2019 16:46,-3.251856672,-72.90722121,4.593176,425.0917748,2.9527608,4.063385957,15,5,16.996,425.0917748,4.593176,2.9527608,4.063385957,2.908022,-0.447388,0,356.4,-23.3,-3.2,0,0,1456,1024,1024,1646,359.4,0,96,4.265,4.25,4.24,4.24,0,0,7.113,92.66,425.0917748,4.593176,6,P-GPS,
10100,5/2/2019 16:46,-3.251855301,-72.90722152,4.593176,425.0917748,3.8251674,4.569357102,15,5,16.996,425.0917748,4.593176,3.8251674,4.569357102,3.802798,-0.447388,0,2.1,-19.6,-4.3,0,0,1456,1024,1024,1216,5.2,0,96,4.265,4.25,4.24,4.24,0,0,7.113,92.66,425.0917748,4.593176,6,P-GPS,
10200,5/2/2019 16:46,-3.251853707,-72.90722179,4.593176,425.0917748,4.5186188,5.148425362,15,5,16.996,425.0917748,4.593176,4.5186188,5.148425362,4.47388,-0.671082,0,6.9,-16.1,-3.7,0,0,1465,1024,1024,1024,9.6,0,96,4.265,4.25,4.24,4.24,0,0,7.113,92.66,425.0917748,4.593176,6,P-GPS,
10300,5/2/2019 16:46,-3.251851777,-72.90722227,4.593176,425.0917748,5.1897008,5.870505437,15,5,16.996,425.0917748,4.593176,5.1897008,5.870505437,5.144962,-0.671082,0,6.9,-14.3,-1.7,0,0,1499,1024,1024,1024,10.1,0,96,4.265,4.25,4.24,4.24,0,0,7.113,92.66,425.0917748,4.593176,6,P-GPS,
10400,5/2/2019 16:46,-3.251849928,-72.90722289,4.593176,425.0917748,5.6370888,6.582021208,16,5,16.996,425.0917748,4.593176,5.6370888,6.582021208,5.59235,-0.671082,0,6.5,-13.4,-0.5,0,0,1501,1024,1024,1493,10.1,0,96,4.265,4.25,4.24,4.24,0,0,7.113,92.66,425.0917748,4.593176,6,P-GPS,
10500,5/2/2019 16:46,-3.251847601,-72.90722337,4.593176,425.0917748,5.6370888,7.443668217,16,5,16.996,425.0917748,4.593176,5.6370888,7.443668217,6.039738,-0.894776,0,5.2,-14,0,0,0,1500,1024,1024,1641,10.3,0,96,4.265,4.25,4.24,4.24,0,0,7.113,92.66,425.0917748,4.593176,6,P-GPS,
10600,5/2/2019 16:46,-3.251845425,-72.9072244,4.593176,425.0917748,6.7779282,8.314895279,16,5,16.996,425.0917748,4.593176,6.7779282,8.314895279,6.71082,-0.894776,0,6.6,-14.8,-0.6,0,0,1497,1024,1024,1473,13.5,0,96,4.265,4.25,4.24,4.24,0,0,7.113,92.66,425.0917748,4.593176,6,P-GPS,
10700,5/2/2019 16:46,-3.251842719,-72.9072249,4.593176,425.0917748,7.2029468,9.309481925,16,5,16.996,425.0917748,4.593176,7.2029468,9.309481925,7.158208,-0.894776,0,10.2,-14.8,-1,0,0,1497,1024,1024,1024,18.4,0,96,4.265,4.25,4.24,4.24,0,0,7.113,92.66,425.0917748,4.593176,6,P-GPS,
10800,5/2/2019 16:46,-3.251839823,-72.90722582,4.593176,425.0917748,7.6503348,10.41794653,15,5,16.972,425.0917748,4.593176,7.6503348,10.41794653,7.605596,-0.894776,0,12.2,-14.7,-0.4,0,0,1486,1024,1024,1024,20.2,0,96,4.259,4.242,4.234,4.238,0,0,7.465,92.66,425.0917748,4.593176,6,P-GPS,
10900,5/2/2019 16:46,-3.251836729,-72.90722627,4.593176,425.0917748,7.6503348,11.54353711,15,5,16.972,425.0917748,4.593176,7.6503348,11.54353711,8.276678,-0.671082,0,13.3,-14.2,0.5,0,0,1486,1024,1024,1024,20.3,0,96,4.259,4.242,4.234,4.238,0,0,7.465,92.66,425.0917748,4.593176,6,P-GPS,
11000,5/2/2019 16:46,-3.251833758,-72.90722688,4.593176,425.0917748,8.5227414,12.64626025,15,5,16.972,425.0917748,4.593176,8.5227414,12.64626025,8.500372,-0.447388,0,13.5,-13.4,1.1,0,0,1485,1024,1024,1015,20.3,0,96,4.259,4.242,4.234,4.238,0,0,7.465,92.66,425.0917748,4.593176,6,P-GPS,
11100,5/2/2019 16:46,-3.251830353,-72.90722729,4.593176,425.0917748,8.5227414,13.88087315,15,5,16.972,425.0917748,4.593176,8.5227414,13.88087315,8.94776,-0.447388,0,11.8,-13.1,1.3,0,0,1484,1024,1024,959,20.3,0,96,4.259,4.242,4.234,4.238,0,0,7.465,92.66,425.0917748,4.593176,6,P-GPS,
11200,5/2/2019 16:46,-3.251826601,-72.90722892,4.593176,425.0917748,9.171454,15.36023671,16,5,16.972,425.0917748,4.593176,9.171454,15.36023671,9.171454,-0.447388,0,10.7,-13,0.9,0,0,1484,1024,1024,947,20.3,0,96,4.259,4.242,4.234,4.238,0,0,7.465,92.66,425.0917748,4.593176,6,P-GPS,
11300,5/2/2019 16:46,-3.251822893,-72.90722931,4.593176,425.0917748,9.6412114,16.70085355,16,5,16.972,425.0917748,4.593176,9.6412114,16.70085355,9.618842,-0.671082,0,9.5,-13,1,0,0,1461,1024,1024,603,20.2,0,96,4.259,4.242,4.234,4.238,0,0,7.465,92.66,425.0917748,4.593176,6,P-GPS,
11400,5/2/2019 16:46,-3.251819769,-72.90723065,4.593176,425.0917748,9.9320136,17.930578,16,5,16.972,425.0917748,4.593176,9.9320136,17.930578,9.842536,-1.342164,0,5.9,-12.9,0.8,0,0,1412,1024,1024,372,19.8,0,96,4.259,4.242,4.234,4.238,0,0,7.465,92.66,425.0917748,4.593176,6,P-GPS,
11500,5/2/2019 16:46,-3.251815851,-72.90723109,4.593176,425.0917748,10.1557076,19.34901637,16,5,16.972,425.0917748,4.593176,10.1557076,19.34901637,10.06623,-1.342164,0,3.9,-11.9,1.6,0,0,1358,1024,1024,366,17.2,0,96,4.259,4.242,4.234,4.238,0,0,7.465,92.66,425.0917748,4.593176,6,P-GPS,
11600,5/2/2019 16:46,-3.251812228,-72.90723207,4.593176,425.0917748,10.3570322,20.71807809,16,5,16.972,425.0917748,4.593176,10.3570322,20.71807809,10.289924,-1.11847,0,359.5,-9.6,2.6,0,0,1120,1024,1024,645,11.6,0,96,4.259,4.242,4.234,4.238,0,0,7.465,92.66,425.0917748,4.593176,6,P-GPS,
11700,5/2/2019 16:46,-3.251808151,-72.90723248,4.593176,425.0917748,10.5807262,22.19373431,16,5,16.972,425.0917748,4.593176,10.5807262,22.19373431,10.513618,-1.11847,0,353.4,-5.8,2,0,0,1024,1024,1024,1017,5.8,0,96,4.259,4.242,4.234,4.238,0,0,7.465,92.66,425.0917748,4.593176,6,P-GPS,
11800,5/2/2019 16:46,-3.251803434,-72.90723273,4.593176,425.0917748,10.5583568,23.88458082,16,5,16.972,425.0917748,4.593176,10.5807262,23.88458082,10.513618,-0.894776,0,351.1,1.2,0.2,0,0,1024,1024,1024,884,4.5,0,96,4.259,4.242,4.234,4.238,0,0,7.465,92.66,425.0917748,4.593176,6,P-GPS,
11900,5/2/2019 16:46,-3.251799351,-72.9072331,4.593176,425.0917748,10.1109688,25.36401,16,5,16.989,425.0917748,4.593176,10.5807262,25.36401,10.06623,-0.894776,0,349.3,19.7,-2.4,0,0,1024,1024,1024,522,4.5,0,96,4.261,4.245,4.239,4.244,0,0,6.862,92.84,425.0917748,4.593176,6,P-GPS,
12000,5/2/2019 16:46,-3.251795216,-72.90723248,4.593176,425.0917748,9.1938234,26.78530269,16,5,16.989,425.0917748,4.593176,10.5807262,26.78530269,9.171454,-0.671082,0,348.2,26.9,-3.8,0,0,1024,1024,1024,889,3.2,0,96,4.261,4.245,4.239,4.244,0,0,6.862,92.84,425.0917748,4.593176,6,P-GPS,
12100,5/2/2019 16:46,-3.251791849,-72.90723275,4.593176,425.0917748,8.0753534,28.00751402,16,5,16.989,425.0917748,4.593176,10.5807262,28.00751402,8.052984,-0.671082,0.223694,345,27.9,-4.6,0,0,1024,1024,1024,1024,0.7,0,96,4.261,4.245,4.239,4.244,0,0,6.862,92.84,425.0917748,4.593176,6,P-GPS,
12200,5/2/2019 16:46,-3.251788689,-72.90723268,4.265092,424.7636908,6.7331894,29.13225159,16,5,16.989,425.0917748,4.593176,10.5807262,29.13225159,6.71082,-0.447388,0,344.6,24.5,-4.4,0,0,1024,1024,1024,963,0.3,0,96,4.261,4.245,4.239,4.244,0,0,6.862,92.84,424.7636908,4.265092,6,P-GPS,
12300,5/2/2019 16:46,-3.251786282,-72.90723289,4.265092,424.7636908,5.8384134,30.00866238,16,5,16.989,425.0917748,4.593176,10.5807262,30.00866238,5.816044,-0.447388,0,344.3,21.4,-4.1,0,0,1024,1024,1024,616,0.3,0,96,4.261,4.245,4.239,4.244,0,0,6.862,92.84,424.7636908,4.265092,6,P-GPS,
12400,5/2/2019 16:47,-3.251783858,-72.90723262,3.937008,424.4356068,4.921268,30.85856398,16,5,16.989,425.0917748,4.593176,10.5807262,30.85856398,4.921268,-0.223694,0,343.9,20.8,-3.8,0,0,1024,1024,1024,1024,359.9,0,96,4.261,4.245,4.239,4.244,0,0,6.862,92.84,424.4356068,3.937008,6,P-GPS,
12500,5/2/2019 16:47,-3.251782195,-72.90723276,3.937008,424.4356068,4.921268,31.464043,16,5,16.989,425.0917748,4.593176,10.5807262,31.464043,4.026492,-0.223694,0,342.6,21,-4.1,0,0,1485,1024,1024,1024,358.9,0,96,4.261,4.245,4.239,4.244,0,0,6.862,92.84,424.4356068,3.937008,6,P-GPS,
12600,5/2/2019 16:47,-3.25178041,-72.90723289,3.937008,424.4356068,3.131716,32.11289473,16,5,16.989,425.0917748,4.593176,10.5807262,32.11289473,3.131716,-0.223694,0,342.5,18.4,-3.7,0,0,1537,1024,1024,1011,358.9,0,96,4.261,4.245,4.239,4.244,0,0,6.862,92.84,424.4356068,3.937008,6,P-GPS,
12700,5/2/2019 16:47,-3.251779397,-72.90723298,4.265092,424.7636908,2.23694,32.48235012,16,5,16.989,425.0917748,4.593176,10.5807262,32.48235012,2.23694,-0.223694,0,342.8,7.3,-2.9,0,0,1479,1024,1048,708,358.9,0,96,4.261,4.245,4.239,4.244,0,0,6.862,92.84,424.7636908,4.265092,6,P-GPS,
12800,5/2/2019 16:47,-3.251778403,-72.90723363,4.265092,424.7636908,2.0356154,32.88254698,16,5,16.989,425.0917748,4.593176,10.5807262,32.88254698,2.013246,-0.223694,0,342.7,-4.5,-2.1,0,0,1471,1024,1224,993,358.4,0,96,4.261,4.245,4.239,4.244,0,0,6.862,92.84,424.7636908,4.265092,6,P-GPS,
12900,5/2/2019 16:47,-3.251777519,-72.90723384,4.265092,424.7636908,2.23694,33.21358374,16,5,16.95,425.0917748,4.593176,10.5807262,33.21358374,2.23694,-0.223694,0,342.2,-10,-1.4,0,0,1472,1024,1390,885,357.9,0,96,4.253,4.237,4.228,4.233,0,0,8.28,92.84,424.7636908,4.265092,6,P-GPS,
13000,5/2/2019 16:47,-3.251776696,-72.90723411,4.265092,424.7636908,2.5053728,33.52657588,16,5,16.95,425.0917748,4.593176,10.5807262,33.52657588,2.460634,-0.447388,-0.223694,341.9,-11.7,-1.2,0,0,1459,1024,1390,838,357.8,0,96,4.253,4.237,4.228,4.233,0,0,8.28,92.84,424.7636908,4.265092,6,P-GPS,
13100,5/2/2019 16:47,-3.251775548,-72.90723447,4.593176,425.0917748,2.9751302,33.96259951,16,5,16.95,425.0917748,4.593176,10.5807262,33.96259951,2.908022,-0.671082,-0.671082,341.6,-11.9,-0.8,0,0,1410,1024,1315,931,357.6,0,96,4.253,4.237,4.228,4.233,0,0,8.28,92.84,425.0917748,4.593176,6,P-GPS,
13200,5/2/2019 16:47,-3.251774306,-72.90723545,4.593176,425.0917748,3.467257,34.47572289,16,5,16.95,425.0917748,4.593176,10.5807262,34.47572289,3.35541,-0.894776,-1.565858,341.2,-10.8,-0.6,0,0,1335,1024,1274,942,357.4,0,96,4.253,4.237,4.228,4.233,0,0,8.28,92.84,425.0917748,4.593176,6,P-GPS,
13300,5/2/2019 16:47,-3.251772778,-72.90723606,4.92126,425.4198588,3.9593838,35.06627409,16,5,16.95,425.4198588,4.92126,10.5807262,35.06627409,3.802798,-1.11847,-1.565858,341.1,-8.9,-0.5,0,0,1224,1024,1242,943,357.3,0,96,4.253,4.237,4.228,4.233,0,0,8.28,92.84,425.4198588,4.92126,6,P-GPS,
13400,5/2/2019 16:47,-3.251770981,-72.90723732,5.249344,425.7479428,4.1830778,35.80052608,16,5,16.95,425.7479428,5.249344,10.5807262,35.80052608,4.026492,-1.11847,-1.342164,341,-6.5,-0.3,0,0,1145,1024,1242,809,357.3,0,96,4.253,4.237,4.228,4.233,0,0,8.28,92.84,425.7479428,5.249344,6,P-GPS,
13500,5/2/2019 16:47,-3.251769239,-72.90723808,5.577428,426.0760268,4.1830778,36.48031613,16,5,16.95,426.0760268,5.577428,10.5807262,36.48031613,4.026492,-1.11847,-1.11847,341,-3.1,-0.1,0,0,1025,1024,1182,490,357.2,0,96,4.253,4.237,4.228,4.233,0,0,8.28,92.84,426.0760268,5.577428,6,P-GPS,
13600,5/2/2019 16:47,-3.251767904,-72.90723826,5.577428,426.0760268,4.1830778,36.97047362,16,5,16.95,426.0760268,5.577428,10.5807262,36.97047362,4.026492,-1.11847,-0.894776,340.1,0,0,0,0,1024,1024,1122,400,355.9,0,96,4.253,4.237,4.228,4.233,0,0,8.28,92.84,426.0760268,5.577428,6,P-GPS,
13700,5/2/2019 16:47,-3.251766164,-72.90723901,5.577428,426.0760268,4.1830778,37.64829517,16,5,16.95,426.0760268,5.577428,10.5807262,37.64829517,4.026492,-1.11847,-0.671082,337,7.7,-0.9,0,0,1024,1024,1062,705,352.1,0,96,4.253,4.237,4.228,4.233,0,0,8.28,92.84,426.0760268,5.577428,6,P-GPS,
13800,5/2/2019 16:47,-3.251764787,-72.90723876,5.905512,426.4041108,3.9593838,38.12073613,16,5,16.95,426.4041108,5.905512,10.5807262,38.12073613,3.802798,-1.11847,-0.447388,332.3,14.7,-3.1,0,0,1024,1024,1024,1006,347.4,0,96,4.253,4.237,4.228,4.233,0,0,8.28,92.84,426.4041108,5.905512,6,P-GPS,
13900,5/2/2019 16:47,-3.251763342,-72.90723934,5.905512,426.4041108,3.2659324,38.68044743,16,5,16.95,426.4041108,5.905512,10.5807262,38.68044743,3.131716,-0.894776,0,330.1,17.2,-4.4,0,0,1024,1024,1024,1024,346.4,0,96,4.253,4.237,4.228,4.233,0,0,8.28,92.84,426.4041108,5.905512,6,P-GPS,
14000,5/2/2019 16:47,-3.251762193,-72.90723901,5.905512,426.4041108,2.5501116,39.06496188,16,5,16.978,426.4041108,5.905512,10.5807262,39.06496188,2.460634,-0.671082,0,329.8,16.4,-4.2,0,0,1024,1024,1024,869,346.3,0,96,4.262,4.239,4.229,4.233,0,0,7.363,92.84,426.4041108,5.905512,6,P-GPS,
14100,5/2/2019 16:47,-3.25176125,-72.90723937,5.577428,426.0760268,2.0579848,39.42913512,16,5,16.978,426.4041108,5.905512,10.5807262,39.42913512,2.013246,-0.447388,0,329.9,13.8,-3.5,0,0,1024,1024,1024,1024,346.3,0,96,4.262,4.239,4.229,4.233,0,0,7.363,92.84,426.0760268,5.577428,6,P-GPS,
14200,5/2/2019 16:47,-3.251760608,-72.90723943,5.577428,426.0760268,1.6329662,39.66240284,16,5,16.978,426.4041108,5.905512,10.5807262,39.66240284,1.565858,-0.447388,0,329.8,11.1,-2.8,0,0,1024,1024,1024,1131,346.2,0,96,4.262,4.239,4.229,4.233,0,0,7.363,92.84,426.0760268,5.577428,6,P-GPS,
14300,5/2/2019 16:47,-3.251760082,-72.90723965,5.577428,426.0760268,1.1408394,39.86679918,16,5,16.978,426.4041108,5.905512,10.5807262,39.86679918,1.11847,-0.223694,0,329.8,8.7,-2.4,0,0,1024,1024,1024,1024,346.2,0,96,4.262,4.239,4.229,4.233,0,0,7.363,92.84,426.0760268,5.577428,6,P-GPS,
14400,5/2/2019 16:47,-3.251759588,-72.90723983,5.577428,426.0760268,1.1408394,40.0570879,16,5,16.978,426.4041108,5.905512,10.5807262,40.0570879,0.671082,-0.223694,0,330,7,-2.1,0,0,1024,1024,1024,1024,346.3,0,96,4.262,4.239,4.229,4.233,0,0,7.363,92.84,426.0760268,5.577428,6,P-GPS,
14500,5/2/2019 16:47,-3.25175932,-72.90723998,5.577428,426.0760268,0.447388,40.16338711,16,5,16.978,426.4041108,5.905512,10.5807262,40.16338711,0.447388,0,0,330,5.6,-1.9,0,0,1024,1024,1024,1024,346.3,0,96,4.262,4.239,4.229,4.233,0,0,7.363,92.84,426.0760268,5.577428,6,P-GPS,
14600,5/2/2019 16:47,-3.251759344,-72.90724007,5.577428,426.0760268,0.223694,40.16207478,16,5,16.978,426.4041108,5.905512,10.5807262,40.16338711,0.223694,0,0,329.9,4.4,-1.7,0,0,1470,1024,1024,1024,346.3,0,96,4.262,4.239,4.229,4.233,0,0,7.363,92.84,426.0760268,5.577428,6,P-GPS,
14700,5/2/2019 16:47,-3.251759262,-72.90724017,5.905512,426.4041108,0,40.19947635,16,5,16.978,426.4041108,5.905512,10.5807262,40.19947635,0,0,0,330,3.1,-1.3,0,0,1580,1024,1024,1024,346.3,0,96,4.262,4.239,4.229,4.233,0,0,7.363,92.84,426.4041108,5.905512,6,P-GPS,
14800,5/2/2019 16:47,-3.251759332,-72.90724023,5.905512,426.4041108,0,40.17913514,16,5,16.978,426.4041108,5.905512,10.5807262,40.19947635,0,0,0,330.1,-4.9,-0.9,0,0,1581,1024,1024,1024,346.3,0,96,4.262,4.239,4.229,4.233,0,0,7.363,92.84,426.4041108,5.905512,6,P-GPS,
14900,5/2/2019 16:47,-3.251759264,-72.90724037,5.905512,426.4041108,0.3131716,40.21391205,16,5,16.978,426.4041108,5.905512,10.5807262,40.21391205,0.223694,-0.223694,0,330.2,-14.7,-0.6,0,0,1535,1024,1024,1024,346.3,0,96,4.262,4.239,4.229,4.233,0,0,7.363,92.84,426.4041108,5.905512,6,P-GPS,
15000,5/2/2019 16:47,-3.251759103,-72.90724073,5.905512,426.4041108,0.8052984,40.29921389,16,5,16.952,426.4041108,5.905512,10.5807262,40.29921389,0.671082,-0.447388,0,330.1,-20.6,-0.4,0,0,1484,1024,1241,1024,346.3,0,96,4.256,4.238,4.227,4.23,0,0,7.179,93.02,426.4041108,5.905512,6,P-GPS,
15100,5/2/2019 16:47,-3.251758607,-72.90724114,5.905512,426.4041108,1.6105968,40.5082034,16,5,16.952,426.4041108,5.905512,10.5807262,40.5082034,1.342164,-0.894776,0,330.1,-21.5,-0.2,0,0,1399,1024,1248,1024,346.3,0,96,4.256,4.238,4.227,4.23,0,0,7.179,93.02,426.4041108,5.905512,6,P-GPS,
15200,5/2/2019 16:47,-3.251757958,-72.90724196,5.905512,426.4041108,2.6172198,40.80446325,16,5,16.952,426.4041108,5.905512,10.5807262,40.80446325,2.23694,-1.342164,0,330.1,-18.5,-0.1,0,0,1221,1024,1286,1024,346.3,0,96,4.256,4.238,4.227,4.23,0,0,7.179,93.02,426.4041108,5.905512,6,P-GPS,
15300,5/2/2019 16:47,-3.251756893,-72.90724274,5.905512,426.4041108,3.4225182,41.24704856,16,5,16.952,426.4041108,5.905512,10.5807262,41.24704856,2.908022,-1.789552,-0.447388,330.1,-12.8,0.1,0,0,1024,1024,1379,1024,346.3,0,96,4.256,4.238,4.227,4.23,0,0,7.179,93.02,426.4041108,5.905512,6,P-GPS,
15400,5/2/2019 16:47,-3.25175594,-72.90724341,5.905512,426.4041108,3.7133204,41.64140553,16,5,16.952,426.4041108,5.905512,10.5807262,41.64140553,3.131716,-2.013246,-0.671082,330,-5.9,0.4,0,0,1024,1024,1388,1024,346.3,0,96,4.256,4.238,4.227,4.23,0,0,7.179,93.02,426.4041108,5.905512,6,P-GPS,
15500,5/2/2019 16:47,-3.251754607,-72.90724434,6.233596,426.7321948,3.7133204,42.1935709,16,5,16.952,426.7321948,6.233596,10.5807262,42.1935709,3.131716,-2.013246,-1.342164,330.1,7,0.5,0,0,1024,1024,1392,1024,346.3,0,96,4.256,4.238,4.227,4.23,0,0,7.179,93.02,426.7321948,6.233596,6,P-GPS,
15600,5/2/2019 16:47,-3.251753627,-72.90724477,6.233596,426.7321948,3.4225182,42.57775727,16,5,16.952,426.7321948,6.233596,10.5807262,42.57775727,2.908022,-1.789552,-1.789552,330.1,14.3,0.4,0,0,1024,1024,1390,1024,346.3,0,96,4.256,4.238,4.227,4.23,0,0,7.179,93.02,426.7321948,6.233596,6,P-GPS,
15700,5/2/2019 16:47,-3.251752599,-72.90724546,6.56168,427.0602788,2.6172198,43.00229796,16,5,16.952,427.0602788,6.56168,10.5807262,43.00229796,2.23694,-1.342164,-2.013246,330.1,15.7,0.1,0,0,1024,1024,1379,1024,346.3,0,96,4.256,4.238,4.227,4.23,0,0,7.179,93.02,427.0602788,6.56168,6,P-GPS,
15800,5/2/2019 16:47,-3.251751913,-72.9072457,6.889764,427.3883628,1.9908766,43.26640558,15,5,16.952,427.3883628,6.889764,10.5807262,43.26640558,1.789552,-0.894776,-2.23694,329.9,13.8,-0.2,0,0,1144,1024,1353,1024,346.3,0,96,4.256,4.238,4.227,4.23,0,0,7.179,93.02,427.3883628,6.889764,6,P-GPS,
15900,5/2/2019 16:47,-3.251751336,-72.9072461,7.217848,427.7164468,1.4987498,43.5059069,15,5,16.952,427.7164468,7.217848,10.5807262,43.5059069,1.342164,-0.671082,-2.23694,329.8,11.2,-0.5,0,0,1540,1024,1324,1024,346.3,0,96,4.256,4.238,4.227,4.23,0,0,7.179,93.02,427.7164468,7.217848,6,P-GPS,
16000,5/2/2019 16:47,-3.251750661,-72.90724572,7.545932,428.0445308,1.2079476,43.71128749,16,5,16.951,428.0445308,7.545932,10.5807262,43.71128749,1.11847,-0.447388,-2.013246,330,7.3,-0.6,0,0,1638,1024,1311,1024,346.3,0,96,4.254,4.238,4.227,4.232,0,0,8.441,93.02,428.0445308,7.545932,6,P-GPS,
16100,5/2/2019 16:47,-3.251750336,-72.90724589,7.874016,428.3726148,1.006623,43.84120875,16,5,16.951,428.3726148,7.874016,10.5807262,43.84120875,0.894776,-0.447388,-1.789552,330,-3.3,-0.7,0,0,1684,1024,1312,1024,346.3,0,96,4.254,4.238,4.227,4.232,0,0,8.441,93.02,428.3726148,7.874016,6,P-GPS,
16200,5/2/2019 16:47,-3.251749896,-72.90724597,8.2021,428.7006988,1.006623,44.0042665,16,5,16.951,428.7006988,8.2021,10.5807262,44.0042665,1.11847,-0.447388,-1.565858,330.1,-15.9,-0.7,0,0,1672,1024,1312,1024,346.3,0,96,4.254,4.238,4.227,4.232,0,0,8.441,93.02,428.7006988,8.2021,6,P-GPS,
16300,5/2/2019 16:47,-3.251749404,-72.90724622,8.2021,428.7006988,1.8119214,44.20046073,16,5,16.951,428.7006988,8.2021,10.5807262,44.20046073,1.565858,-0.894776,-1.565858,330.1,-23.1,-0.6,0,0,1605,1024,1311,1024,346.3,0,96,4.254,4.238,4.227,4.232,0,0,8.441,93.02,428.7006988,8.2021,6,P-GPS,
16400,5/2/2019 16:47,-3.251748529,-72.90724692,8.530184,429.0287828,2.796175,44.57152374,16,5,16.951,429.0287828,8.530184,10.5807262,44.57152374,2.460634,-1.342164,-1.342164,330.2,-24.6,-0.6,0,0,1506,1024,1312,1024,346.3,0,96,4.254,4.238,4.227,4.232,0,0,8.441,93.02,429.0287828,8.530184,6,P-GPS,
16500,5/2/2019 16:47,-3.251747426,-72.90724754,8.858268,429.3568668,3.6014734,45.01804606,16,5,16.951,429.3568668,8.858268,10.5807262,45.01804606,3.131716,-1.789552,-1.342164,330.1,-24.4,-0.7,0,0,1416,1024,1351,1024,346.3,0,96,4.254,4.238,4.227,4.232,0,0,8.441,93.02,429.3568668,8.858268,6,P-GPS,
16600,5/2/2019 16:47,-3.251746054,-72.90724844,9.186352,429.6849508,4.4067718,45.58399096,16,5,16.951,429.6849508,9.186352,10.5807262,45.58399096,3.802798,-2.23694,-1.342164,330.1,-22.2,-0.8,0,0,1346,1024,1350,1024,346.3,0,96,4.254,4.238,4.227,4.232,0,0,8.441,93.02,429.6849508,9.186352,6,P-GPS,
16700,5/2/2019 16:47,-3.251744336,-72.90724945,9.514436,430.0130348,5.2120702,46.28313796,16,5,16.951,430.0130348,9.514436,10.5807262,46.28313796,4.47388,-2.684328,-1.565858,330.1,-16.5,-0.7,0,0,1270,1024,1349,1024,346.3,0,96,4.254,4.238,4.227,4.232,0,0,8.441,93.02,430.0130348,9.514436,6,P-GPS,
16800,5/2/2019 16:47,-3.251742471,-72.90725042,9.84252,430.3411188,5.9055216,47.03215374,16,5,16.951,430.3411188,9.84252,10.5807262,47.03215374,5.144962,-2.908022,-1.789552,330,-10,-0.6,0,0,1128,1024,1351,1024,346.3,0,96,4.254,4.238,4.227,4.232,0,0,8.441,93.02,430.3411188,9.84252,6,P-GPS,
16900,5/2/2019 16:47,-3.251740377,-72.90725164,9.84252,430.3411188,6.2186932,47.88550022,16,5,16.951,430.3411188,9.84252,10.5807262,47.88550022,5.368656,-3.131716,-1.789552,329.9,-4.2,-0.5,0,0,1024,1024,1358,1024,346.3,0,96,4.254,4.238,4.227,4.232,0,0,8.441,93.02,430.3411188,9.84252,6,P-GPS,
17000,5/2/2019 16:47,-3.251738252,-72.90725269,10.170604,430.6692028,6.2186932,48.73425353,16,5,16.951,430.6692028,10.170604,10.5807262,48.73425353,5.368656,-3.131716,-1.789552,330,0.2,-0.3,0,0,1024,1024,1373,1024,346.3,0,96,4.254,4.238,4.227,4.232,0,0,8.441,93.02,430.6692028,10.170604,6,P-GPS,
17100,5/2/2019 16:47,-3.251736133,-72.9072539,10.498688,430.9972868,6.2186932,49.59711445,16,5,16.933,430.9972868,10.498688,10.5807262,49.59711445,5.368656,-3.131716,-2.013246,329.9,10.7,-0.7,0,0,1024,1024,1391,1024,346.3,0,96,4.254,4.235,4.222,4.223,0,0,7.833,93.02,430.9972868,10.498688,6,P-GPS,
17200,5/2/2019 16:47,-3.251733989,-72.90725475,10.826772,431.3253708,5.4133948,50.4347129,16,5,16.933,431.3253708,10.826772,10.5807262,50.4347129,4.697574,-2.684328,-2.013246,329.9,20.4,-0.8,0,0,1024,1024,1396,1024,346.3,0,96,4.254,4.235,4.222,4.223,0,0,7.833,93.02,431.3253708,10.826772,6,P-GPS,
17300,5/2/2019 16:47,-3.251732287,-72.90725569,11.154856,431.6534548,4.6080964,51.1256578,16,5,16.933,431.6534548,11.154856,10.5807262,51.1256578,4.026492,-2.23694,-2.013246,329.8,23.4,-0.5,0,0,1466,1024,1358,1024,346.3,0,96,4.254,4.235,4.222,4.223,0,0,7.833,93.02,431.6534548,11.154856,6,P-GPS,
17400,5/2/2019 16:47,-3.251730639,-72.90725629,11.154856,431.6534548,3.6014734,51.76378118,16,5,16.933,431.6534548,11.154856,10.5807262,51.76378118,3.131716,-1.789552,-2.23694,330,20.6,-0.3,0,0,1647,1024,1354,1024,346.3,0,96,4.254,4.235,4.222,4.223,0,0,7.833,93.02,431.6534548,11.154856,6,P-GPS,
17500,5/2/2019 16:47,-3.251729589,-72.90725682,11.48294,431.9815388,2.796175,52.18536912,16,5,16.933,431.9815388,11.48294,10.5807262,52.18536912,2.460634,-1.342164,-2.23694,329.9,8.4,-0.4,0,0,1643,1024,1353,1024,346.3,0,96,4.254,4.235,4.222,4.223,0,0,7.833,93.02,431.9815388,11.48294,6,P-GPS,
17600,5/2/2019 16:47,-3.251728218,-72.90725747,11.811024,432.3096228,2.796175,52.73162898,16,5,16.933,432.3096228,11.811024,10.5807262,52.73162898,2.460634,-1.342164,-2.013246,330,-7.7,-0.5,0,0,1658,1024,1355,1024,346.3,0,96,4.254,4.235,4.222,4.223,0,0,7.833,93.02,432.3096228,11.811024,6,P-GPS,
17700,5/2/2019 16:47,-3.251727225,-72.90725797,12.139108,432.6377068,3.1093466,53.12992296,16,5,16.933,432.6377068,12.139108,10.5807262,53.12992296,2.684328,-1.565858,-1.789552,330,-18.9,-0.5,0,0,1671,1024,1354,1024,346.3,0,96,4.254,4.235,4.222,4.223,0,0,7.833,93.02,432.6377068,12.139108,6,P-GPS,
17800,5/2/2019 16:47,-3.251725942,-72.90725849,12.467192,432.9657908,3.914645,53.63254765,15,5,16.933,432.9657908,12.467192,10.5807262,53.63254765,3.35541,-2.013246,-1.789552,330.1,-23.9,-0.5,0,0,1672,1024,1354,1024,346.3,0,96,4.254,4.235,4.222,4.223,0,0,7.833,93.02,432.9657908,12.467192,6,P-GPS,
17900,5/2/2019 16:47,-3.25172446,-72.90725925,12.795276,433.2938748,4.7199434,54.2303167,15,5,16.933,433.2938748,12.795276,10.5807262,54.2303167,4.026492,-2.460634,-1.789552,330,-24.8,-0.3,0,0,1671,1024,1353,1024,346.3,0,96,4.254,4.235,4.222,4.223,0,0,7.833,93.02,433.2938748,12.795276,6,P-GPS,
18000,5/2/2019 16:47,-3.251722813,-72.90726056,13.12336,433.6219588,5.7265664,54.94258706,15,5,16.933,433.6219588,13.12336,10.5807262,54.94258706,4.921268,-2.908022,-1.789552,330,-24.5,-0.3,0,0,1510,1024,1353,1024,346.3,0,96,4.254,4.235,4.222,4.223,0,0,7.833,93.02,433.6219588,13.12336,6,P-GPS,
18100,5/2/2019 16:47,-3.251720709,-72.90726173,13.451444,433.9500428,6.5318648,55.80019864,15,5,16.89,433.9500428,13.451444,10.5807262,55.80019864,5.59235,-3.35541,-1.789552,330,-24.1,-0.2,0,0,1280,1024,1417,1024,346.3,0,96,4.241,4.22,4.212,4.217,0,0,8.075,93.2,433.9500428,13.451444,6,P-GPS,
18200,5/2/2019 16:47,-3.251718496,-72.90726299,13.779528,434.2781268,7.2029468,56.70702281,15,5,16.89,434.2781268,13.779528,10.5807262,56.70702281,6.263432,-3.579104,-1.789552,330,-20.6,-0.3,0,0,1340,1024,1434,1024,346.3,0,96,4.241,4.22,4.212,4.217,0,0,8.075,93.2,434.2781268,13.779528,6,P-GPS,
18300,5/2/2019 16:47,-3.251715803,-72.9072645,14.107612,434.6062108,8.0082452,57.80872888,15,5,16.89,434.6062108,14.107612,10.5807262,57.80872888,6.934514,-4.026492,-2.23694,329.9,-11.1,-0.6,0,0,1241,1024,1447,1024,346.3,0,96,4.241,4.22,4.212,4.217,0,0,8.075,93.2,434.6062108,14.107612,6,P-GPS,
18400,5/2/2019 16:47,-3.251713147,-72.90726587,14.435696,434.9342948,8.3214168,58.88254782,15,5,16.89,434.9342948,14.435696,10.5807262,58.88254782,7.158208,-4.250186,-2.908022,329.9,-4.1,-0.4,0,0,1085,1024,1469,1024,346.3,0,96,4.241,4.22,4.212,4.217,0,0,8.075,93.2,434.9342948,14.435696,6,P-GPS,
18500,5/2/2019 16:47,-3.251710259,-72.90726749,15.091864,435.5904628,8.3214168,60.0659468,15,5,16.89,435.5904628,15.091864,10.5807262,60.0659468,7.158208,-4.250186,-3.131716,329.9,-0.2,-0.1,0,0,1066,1024,1492,1024,346.3,0,96,4.241,4.22,4.212,4.217,0,0,8.075,93.2,435.5904628,15.091864,6,P-GPS,
18600,5/2/2019 16:47,-3.251707292,-72.90726913,15.419948,435.9185468,8.0082452,61.28051377,16,5,16.89,435.9185468,15.419948,10.5807262,61.28051377,6.934514,-4.026492,-3.35541,330,2.8,0,0,0,1062,1024,1505,1024,346.3,0,96,4.241,4.22,4.212,4.217,0,0,8.075,93.2,435.9185468,15.419948,6,P-GPS,
18700,5/2/2019 16:47,-3.251704495,-72.90727069,15.748032,436.2466308,8.0082452,62.42716735,16,5,16.89,436.2466308,15.748032,10.5807262,62.42716735,6.934514,-4.026492,-3.802798,330,4.1,0.1,0,0,1025,1024,1510,1024,346.3,0,96,4.241,4.22,4.212,4.217,0,0,8.075,93.2,436.2466308,15.748032,6,P-GPS,
18800,5/2/2019 16:47,-3.251701752,-72.90727193,16.4042,436.9027988,7.717443,63.51837474,16,5,16.89,436.9027988,16.4042,10.5807262,63.51837474,6.71082,-3.802798,-4.026492,330.1,4.2,0,0,0,1024,1024,1529,1024,346.3,0,96,4.241,4.22,4.212,4.217,0,0,8.075,93.2,436.9027988,16.4042,6,P-GPS,
18900,5/2/2019 16:47,-3.251699173,-72.90727331,17.060368,437.5589668,7.4042714,64.57021204,16,5,16.89,437.5589668,17.060368,10.5807262,64.57021204,6.487126,-3.579104,-4.250186,329.9,13.1,-0.3,0,0,1024,1024,1638,1024,346.3,0,96,4.241,4.22,4.212,4.217,0,0,8.075,93.2,437.5589668,17.060368,6,P-GPS,
19000,5/2/2019 16:47,-3.25169664,-72.90727467,17.716536,438.2151348,6.4200178,65.60400472,16,5,16.89,438.2151348,17.716536,10.5807262,65.60400472,5.59235,-3.131716,-4.697574,330,21.6,-0.4,0,0,1024,1024,1650,1024,346.3,0,96,4.241,4.22,4.212,4.217,0,0,8.075,93.2,438.2151348,17.716536,6,P-GPS,
19100,5/2/2019 16:47,-3.251694647,-72.90727572,18.372704,438.8713028,5.2120702,66.41568454,16,5,16.89,438.8713028,18.372704,10.5807262,66.41568454,4.47388,-2.684328,-5.368656,329.9,24.3,-0.2,0,0,1024,1024,1684,1024,346.3,0,96,4.241,4.22,4.212,4.217,0,0,8.075,93.2,438.8713028,18.372704,6,P-GPS,
19200,5/2/2019 16:47,-3.251693082,-72.90727661,19.028872,439.5274708,3.6014734,67.06102577,16,5,16.863,439.5274708,19.028872,10.5807262,67.06102577,3.131716,-1.789552,-6.263432,330,21.9,0,0,0,1024,1024,1684,1024,346.3,0,96,4.24,4.222,4.193,4.207,0,0,9.279,93.2,439.5274708,19.028872,6,P-GPS,
19300,5/2/2019 16:47,-3.251692063,-72.9072771,20.013124,440.5117228,2.5053728,67.47014652,16,5,16.863,440.5117228,20.013124,10.5807262,67.47014652,2.23694,-1.11847,-7.158208,330,15.8,-0.2,0,0,1024,1024,1684,1024,346.3,0,96,4.24,4.222,4.193,4.207,0,0,9.279,93.2,440.5117228,20.013124,6,P-GPS,
19400,5/2/2019 16:47,-3.251691201,-72.90727749,20.997376,441.4959748,2.5053728,67.81430663,16,5,16.863,441.4959748,20.997376,10.5807262,67.81430663,1.342164,-0.671082,-7.82929,330,10.6,-0.4,0,0,1024,1024,1684,1024,346.3,0,96,4.24,4.222,4.193,4.207,0,0,9.279,93.2,441.4959748,20.997376,6,P-GPS,
19500,5/2/2019 16:47,-3.25169075,-72.90727764,22.309712,442.8083108,1.006623,67.98753498,16,5,16.863,442.8083108,22.309712,10.5807262,67.98753498,0.894776,-0.447388,-8.276678,329.9,7.9,-0.6,0,0,1024,1024,1626,1024,346.3,0,96,4.24,4.222,4.193,4.207,0,0,9.279,93.2,442.8083108,22.309712,6,P-GPS,
19600,5/2/2019 16:47,-3.251690353,-72.90727789,23.622048,444.1206468,0.7158208,68.15354549,15,5,16.863,444.1206468,23.622048,10.5807262,68.15354549,0.671082,-0.223694,-8.500372,329.9,6.6,-0.6,0,0,1024,1024,1470,1024,346.3,0,96,4.24,4.222,4.193,4.207,0,0,9.279,93.2,444.1206468,23.622048,6,P-GPS,
19700,5/2/2019 16:47,-3.251690168,-72.90727789,24.934384,445.4329828,0.3131716,68.21850612,15,5,16.863,445.4329828,24.934384,10.5807262,68.21850612,0.223694,-0.223694,-8.500372,329.9,5.7,-0.6,0,0,1024,1024,1367,1024,346.3,0,96,4.24,4.222,4.193,4.207,0,0,9.279,93.2,445.4329828,24.934384,6,P-GPS,
19800,5/2/2019 16:47,-3.251690124,-72.907278,26.24672,446.7453188,0.223694,68.24672134,16,5,16.863,446.7453188,26.24672,10.5807262,68.24672134,0.223694,0,-7.82929,329.8,5.2,-0.7,0,0,1024,1024,1356,1024,346.3,0,96,4.24,4.222,4.193,4.207,0,0,9.279,93.2,446.7453188,26.24672,6,P-GPS,
19900,5/2/2019 16:47,-3.251690068,-72.90727795,27.230972,447.7295708,0,68.2598447,16,5,16.863,447.7295708,27.230972,10.5807262,68.2598447,0,0,-7.158208,329.9,4.6,-0.8,0,0,1024,1024,1379,1024,346.3,0,96,4.24,4.222,4.193,4.207,0,0,9.279,93.2,447.7295708,27.230972,6,P-GPS,
20000,5/2/2019 16:47,-3.251690238,-72.90727813,28.215224,448.7138228,0,68.22211504,16,5,16.863,448.7138228,28.215224,10.5807262,68.2598447,0,0,-6.263432,329.9,3.9,-0.8,0,0,1024,1024,1024,1024,346.3,0,96,4.24,4.222,4.193,4.207,0,0,9.279,93.2,448.7138228,28.215224,6,P-GPS,
20100,5/2/2019 16:47,-3.251690275,-72.90727806,29.199476,449.6980748,0,68.20177384,16,5,16.863,449.6980748,29.199476,10.5807262,68.2598447,0,0,-5.368656,329.9,3,-0.8,0,0,1024,1024,1024,1024,346.3,0,96,4.24,4.222,4.193,4.207,0,0,9.279,93.2,449.6980748,29.199476,6,P-GPS,
20200,5/2/2019 16:47,-3.251690571,-72.907278,29.855644,450.3542428,0,68.09252186,16,5,16.967,450.3542428,29.855644,10.5807262,68.2598447,-0.223694,0.223694,-4.47388,329.9,2.3,-0.9,0,0,1024,1024,1024,1024,346.3,0,96,4.265,4.253,4.243,4.249,0,0,8.915,93.2,450.3542428,29.855644,6,P-GPS,
20300,5/2/2019 16:47,-3.251690679,-72.90727792,30.511812,451.0104108,0.3131716,68.04494968,16,5,16.967,451.0104108,30.511812,10.5807262,68.2598447,-0.223694,0.223694,-3.35541,329.9,1.7,-1,0,0,1024,1024,1024,1024,346.3,0,96,4.265,4.253,4.243,4.249,0,0,8.915,93.2,451.0104108,30.511812,6,P-GPS,
20400,5/2/2019 16:47,-3.251691151,-72.90727783,31.16798,451.6665788,0.3131716,67.87204942,16,5,16.967,451.6665788,31.16798,10.5807262,68.2598447,-0.223694,0.223694,-2.460634,329.9,0.9,-0.9,0,0,1024,1024,1024,1024,346.3,0,96,4.265,4.253,4.243,4.249,0,0,8.915,93.2,451.6665788,31.16798,6,P-GPS,
20500,5/2/2019 16:47,-3.251691323,-72.90727775,31.496064,451.9946628,0.3131716,67.80249561,16,5,16.967,451.9946628,31.496064,10.5807262,68.2598447,-0.223694,0.223694,-1.342164,329.9,0.1,-0.9,0,0,1024,1024,1024,1024,346.3,0,96,4.265,4.253,4.243,4.249,0,0,8.915,93.2,451.9946628,31.496064,6,P-GPS,
20600,5/2/2019 16:47,-3.251691729,-72.90727746,31.496064,451.9946628,0.4921268,67.62795492,16,5,16.967,451.9946628,31.496064,10.5807262,68.2598447,-0.447388,0.223694,-0.671082,329.9,-0.4,-0.7,0,0,1024,1024,1024,1024,346.3,0,96,4.265,4.253,4.243,4.249,0,0,8.915,93.2,451.9946628,31.496064,6,P-GPS,
20700,5/2/2019 16:47,-3.251691933,-72.90727735,31.496064,451.9946628,0.447388,67.54527775,16,5,16.967,451.9946628,31.496064,10.5807262,68.2598447,-0.447388,0,-0.223694,329.9,-1,-0.5,0,0,1024,1024,1024,1024,346.3,0,96,4.265,4.253,4.243,4.249,0,0,8.915,93.2,451.9946628,31.496064,6,P-GPS,
20800,5/2/2019 16:47,-3.251692188,-72.90727714,31.824148,452.3227468,0.223694,67.43176069,16,5,16.967,452.3227468,31.824148,10.5807262,68.2598447,-0.223694,0,0,329.8,-1.3,-0.3,0,0,1024,1024,1024,1024,346.3,0,96,4.265,4.253,4.243,4.249,0,0,8.915,93.2,452.3227468,31.824148,6,P-GPS,
20900,5/2/2019 16:47,-3.251692383,-72.90727705,31.824148,452.3227468,0.223694,67.35400478,16,5,16.967,452.3227468,31.824148,10.5807262,68.2598447,-0.223694,0,0,329.9,-1.6,0,0,0,1024,1024,1024,1024,346.3,0,96,4.265,4.253,4.243,4.249,0,0,8.915,93.2,452.3227468,31.824148,6,P-GPS,
21000,5/2/2019 16:47,-3.251692695,-72.90727643,31.824148,452.3227468,0.223694,67.17355858,16,5,16.967,452.3227468,31.824148,10.5807262,68.2598447,-0.223694,0,0,329.8,-1.6,-0.1,0,0,1024,1024,1024,1024,346.3,0,96,4.265,4.253,4.243,4.249,0,0,8.915,93.2,452.3227468,31.824148,6,P-GPS,
21100,5/2/2019 16:47,-3.251692874,-72.9072763,31.496064,451.9946628,0.223694,67.09613076,16,5,16.967,452.3227468,31.824148,10.5807262,68.2598447,-0.223694,0,0,329.8,-1.5,0,0,0,1024,1024,1024,1024,346.3,0,96,4.265,4.253,4.243,4.249,0,0,8.915,93.2,451.9946628,31.496064,6,P-GPS,
21200,5/2/2019 16:47,-3.251692998,-72.90727617,31.496064,451.9946628,0.223694,67.03838797,16,5,16.935,452.3227468,31.824148,10.5807262,68.2598447,-0.223694,0,0,329.9,-1.3,0.1,0,0,1024,1024,1024,1024,346.3,0,96,4.251,4.234,4.223,4.227,0,0,6.054,93.38,451.9946628,31.496064,6,P-GPS,
