time(millisecond),datetime(utc),latitude,longitude,height_above_takeoff(feet),altitude_above_seaLevel(feet),speed(mph),distance(feet),satellites,gpslevel,voltage(v),max_altitude(feet),max_ascent(feet),max_speed(mph),max_distance(feet), xSpeed(mph), ySpeed(mph), zSpeed(mph), compass_heading(degrees), pitch(degrees), roll(degrees),isPhoto,isVideo,rc_elevator,rc_aileron,rc_throttle,rc_rudder,gimbal_heading(degrees),gimbal_pitch(degrees),battery_percent,voltageCell1,voltageCell2,voltageCell3,voltageCell4,voltageCell5,voltageCell6,current(A),battery_temperature(f),altitude(feet),ascent(feet),flycStateRaw,flycState,message
0,5/2/2019 19:55,-3.251880546,-72.90723029,0,420.3984252,0,0,16,5,0,420.3984252,0,0,0,0,0,0,343.9,1.8,-0.6,0,0,1024,1024,1024,1024,344.6,0,100,4.37,4.357,4.341,4.347,0,0,0,93.02,420.3984252,0,41,Motors_Started,
100,5/2/2019 19:55,-3.251880371,-72.90723032,0,420.3984252,0,0.064904202,16,5,0,420.3984252,0,0,0.064904202,0,0,0,343.9,1.8,-0.6,0,0,1024,1024,1024,1024,344.6,0,100,4.37,4.357,4.341,4.347,0,0,0,93.02,420.3984252,0,41,Motors_Started,
200,5/2/2019 19:55,-3.25188037,-72.9072303,0,420.3984252,0,0.064571196,16,5,0,420.3984252,0,0,0.064904202,0,0,0,343.9,1.8,-0.6,0,0,1024,1024,1024,1024,344.5,0,100,4.37,4.357,4.341,4.347,0,0,0,93.02,420.3984252,0,41,Motors_Started,
300,5/2/2019 19:55,-3.251880369,-72.90723032,0,420.3984252,0,0.066106301,16,5,0,420.3984252,0,0,0.066106301,0,0,0,343.9,1.8,-0.6,0,0,1024,1024,1024,1024,344.5,0,100,4.37,4.357,4.341,4.347,0,0,0,93.02,420.3984252,0,41,Motors_Started,
400,5/2/2019 19:55,-3.251880365,-72.90723031,0,420.3984252,0,0.066850724,16,5,0,420.3984252,0,0,0.066850724,0,0,0,343.9,1.8,-0.6,0,0,1024,1024,1024,1024,344.5,0,100,4.37,4.357,4.341,4.347,0,0,0,93.02,420.3984252,0,41,Motors_Started,
500,5/2/2019 19:55,-3.251880513,-72.90723033,0,420.3984252,0,0.019812796,16,5,0,420.3984252,0,0,0.066850724,0,0,0,343.9,1.8,-0.6,0,0,1024,1024,1024,1024,344.5,0,100,4.37,4.357,4.341,4.347,0,0,0,93.02,420.3984252,0,41,Motors_Started,
600,5/2/2019 19:55,-3.251880523,-72.90723032,0,420.3984252,0,0.013805742,16,5,0,420.3984252,0,0,0.066850724,0,0,0,343.9,1.8,-0.6,0,0,1024,1024,1024,1024,344.5,0,100,4.37,4.357,4.341,4.347,0,0,0,93.02,420.3984252,0,41,Motors_Started,
700,5/2/2019 19:55,-3.251880356,-72.90723019,0,420.3984252,0,0.078735895,16,5,0,420.3984252,0,0,0.078735895,0,0,0,343.9,1.8,-0.6,0,0,1024,1024,1024,1024,344.5,0,100,4.37,4.357,4.341,4.347,0,0,0,93.02,420.3984252,0,41,Motors_Started,
800,5/2/2019 19:55,-3.251880349,-72.90723016,0,420.3984252,0,0.085568244,16,5,0,420.3984252,0,0,0.085568244,0,0,0,343.9,1.8,-0.6,0,0,1024,1024,1024,1024,344.5,0,100,4.37,4.357,4.341,4.347,0,0,0,93.02,420.3984252,0,41,Motors_Started,Setting new Return-To-Home altitude to 30m (98 ft). Data Recorder File Index is 23. Setting new Maximum Flight Altitude to 300m (984 ft)
900,5/2/2019 19:55,-3.251880354,-72.9072302,0,420.3984252,0,0.077420278,16,5,0,420.3984252,0,0,0.085568244,0,0,0,343.9,1.8,-0.6,0,0,1024,1024,1024,1024,344.5,0,100,4.37,4.357,4.341,4.347,0,0,0,93.02,420.3984252,0,41,Motors_Started,
1000,5/2/2019 19:55,-3.25188035,-72.90723018,0,420.3984252,0,0.082570541,16,5,0,420.3984252,0,0,0.085568244,0,0,0,343.9,1.8,-0.6,0,0,1024,1024,1024,1024,344.5,0,100,4.37,4.357,4.341,4.347,0,0,0,93.02,420.3984252,0,41,Motors_Started,
1100,5/2/2019 19:55,-3.251880364,-72.90723021,0,420.3984252,0,0.072660435,16,5,0,420.3984252,0,0,0.085568244,0,0,0,343.9,1.8,-0.6,0,0,1024,1024,1024,1024,344.5,0,100,4.37,4.357,4.341,4.347,0,0,0,93.02,420.3984252,0,41,Motors_Started,
1200,5/2/2019 19:55,-3.251880357,-72.90723019,0,420.3984252,0,0.078203086,16,5,0,420.3984252,0,0,0.085568244,0,0,0,343.6,1.8,-0.6,0,0,1024,1024,1024,1024,344.5,0,100,4.37,4.357,4.341,4.347,0,0,0,93.02,420.3984252,0,11,AutoTakeoff,
1300,5/2/2019 19:55,-3.251880361,-72.90723022,0,420.3984252,0,0.071795606,16,5,0,420.3984252,0,0,0.085568244,0,0,0,343.3,1.8,-0.6,0,0,1024,1024,1024,1024,344.5,0,100,4.37,4.357,4.341,4.347,0,0,0,93.02,420.3984252,0,11,AutoTakeoff,
1400,5/2/2019 19:55,-3.251880359,-72.90723021,0,420.3984252,0,0.074548887,16,5,0,420.3984252,0,0,0.085568244,0,0,0,343.3,1.8,-0.5,0,0,1024,1024,1024,1024,344.5,0,100,4.37,4.357,4.341,4.347,0,0,0,93.02,420.3984252,0,11,AutoTakeoff,
1500,5/2/2019 19:55,-3.251880364,-72.90723024,0,420.3984252,0,0.06934449,16,5,0,420.3984252,0,0,0.085568244,0,0,0,343.4,1.8,-0.5,0,0,1024,1024,1024,1024,344.5,0,100,4.37,4.357,4.341,4.347,0,0,0,93.02,420.3984252,0,11,AutoTakeoff,
1600,5/2/2019 19:55,-3.251880363,-72.90723022,0,420.3984252,0,0.071064963,16,5,0,420.3984252,0,0,0.085568244,0,0,0,343.5,1.8,-0.6,0,0,1024,1024,1024,1024,344.5,0,100,4.37,4.357,4.341,4.347,0,0,0,93.02,420.3984252,0,11,AutoTakeoff,
1700,5/2/2019 19:55,-3.251880225,-72.90723023,0,420.3984252,0,0.119119426,16,5,17.416,420.3984252,0,0,0.119119426,0,0,0,343.1,1.7,-0.6,0,0,1024,1024,1024,1024,344.5,0,100,4.37,4.357,4.341,4.347,0,0,4.284,93.02,420.3984252,0,11,AutoTakeoff,
1800,5/2/2019 19:55,-3.251880208,-72.90723023,0,420.3984252,0,0.125714899,16,5,17.416,420.3984252,0,0,0.125714899,0,0,0,342.6,1.4,-0.6,0,0,1024,1024,1024,1024,344.4,0,100,4.37,4.357,4.341,4.347,0,0,4.284,93.02,420.3984252,0,11,AutoTakeoff,
1900,5/2/2019 19:55,-3.251880224,-72.9072304,0,420.3984252,0,0.125071526,16,5,17.416,420.3984252,0,0,0.125714899,0,0,0,342.8,-1.2,-0.6,0,0,1024,1024,1024,1024,344.4,0,100,4.37,4.357,4.341,4.347,0,0,4.284,93.02,420.3984252,0,11,AutoTakeoff,
2000,5/2/2019 19:55,-3.25188019,-72.90723043,0,420.3984252,0,0.139906829,16,5,17.416,420.3984252,0,0,0.139906829,0,0,-0.223694,342.9,-4.6,-0.1,0,0,1024,1024,1024,1024,344.4,0,100,4.37,4.357,4.341,4.347,0,0,4.284,93.02,420.3984252,0,11,AutoTakeoff,
2100,5/2/2019 19:55,-3.251880136,-72.90723046,0,420.3984252,0.223694,0.162824808,16,5,17.416,420.3984252,0,0.223694,0.162824808,0.223694,0,-0.447388,343.1,-3.9,0.5,0,0,1024,1024,1024,1024,344.4,0,100,4.37,4.357,4.341,4.347,0,0,4.284,93.02,420.3984252,0,11,AutoTakeoff,
2200,5/2/2019 19:55,-3.251879987,-72.90723052,0,420.3984252,0.223694,0.220664049,16,5,17.416,420.3984252,0,0.223694,0.220664049,0.223694,0,-0.671082,343.1,-0.5,0.3,0,0,1024,1024,1024,1024,344.4,0,100,4.37,4.357,4.341,4.347,0,0,4.284,93.02,420.3984252,0,11,AutoTakeoff,
2300,5/2/2019 19:55,-3.251879744,-72.90723052,0,420.3984252,0.223694,0.304254275,16,5,17.416,420.3984252,0,0.223694,0.304254275,0.223694,0,-0.671082,343.1,1.3,0.6,0,0,1024,1024,1024,1024,344.3,0,100,4.37,4.357,4.341,4.347,0,0,4.284,93.02,420.3984252,0,11,AutoTakeoff,
2400,5/2/2019 19:55,-3.251879585,-72.90723055,0.328084,420.7265092,0.223694,0.36323492,16,5,17.416,420.7265092,0.328084,0.223694,0.36323492,0.223694,0,-0.894776,343,1.8,0.2,0,0,1024,1024,1024,1024,344.3,0,100,4.37,4.357,4.341,4.347,0,0,4.284,93.02,420.7265092,0.328084,11,AutoTakeoff,
2500,5/2/2019 19:55,-3.251879602,-72.90723059,0.328084,420.7265092,0.223694,0.361860248,17,5,17.416,420.7265092,0.328084,0.223694,0.36323492,0.223694,0,-0.894776,343,1.6,0.2,0,0,1024,1024,1024,1024,344.3,0,100,4.37,4.357,4.341,4.347,0,0,4.284,93.02,420.7265092,0.328084,11,AutoTakeoff,
2600,5/2/2019 19:55,-3.251879494,-72.90723058,0.656168,421.0545932,0,0.398487546,17,5,17.416,421.0545932,0.656168,0.223694,0.398487546,0,0,-0.671082,343,1.9,0,0,0,1024,1024,1024,1024,344.3,0,100,4.37,4.357,4.341,4.347,0,0,4.284,93.02,421.0545932,0.656168,11,AutoTakeoff,
2700,5/2/2019 19:55,-3.251879414,-72.90723054,0.656168,421.0545932,0,0.423339909,17,5,17.416,421.0545932,0.656168,0.223694,0.423339909,0,0,-0.894776,342.9,1.7,-0.7,0,0,1024,1024,1024,1024,344.3,0,100,4.37,4.357,4.341,4.347,0,0,4.284,93.02,421.0545932,0.656168,11,AutoTakeoff,
2800,5/2/2019 19:55,-3.251879356,-72.90723048,0.656168,421.0545932,0,0.439681773,17,5,17.416,421.0545932,0.656168,0.223694,0.439681773,0,0,-0.894776,342.8,1.4,-1.6,0,0,1024,1024,1024,1024,344.3,0,100,4.37,4.357,4.341,4.347,0,0,4.284,93.02,421.0545932,0.656168,11,AutoTakeoff,
2900,5/2/2019 19:55,-3.251879392,-72.90723023,0.984252,421.3826772,0.223694,0.421965237,17,5,17.416,421.3826772,0.984252,0.223694,0.439681773,0,0.223694,-0.894776,342.6,0.8,-1.6,0,0,1024,1024,1024,1024,344.2,0,100,4.37,4.357,4.341,4.347,0,0,4.284,93.02,421.3826772,0.984252,11,AutoTakeoff,Home Point Recorded. RTH Altitude:  30m.
3000,5/2/2019 19:55,-3.251879385,-72.90723013,0.984252,421.3826772,0.223694,0.427713268,17,5,17.416,421.3826772,0.984252,0.223694,0.439681773,0,0.223694,-0.894776,342.8,-0.3,-2.2,0,0,1024,1024,1024,1024,344.2,0,100,4.37,4.357,4.341,4.347,0,0,4.284,93.02,421.3826772,0.984252,11,AutoTakeoff,
3100,5/2/2019 19:55,-3.251879457,-72.90722991,1.312336,421.7107612,0,0.420564318,17,5,17.416,421.7107612,1.312336,0.223694,0.439681773,0,0,-0.894776,343,-0.6,-2.2,0,0,1024,1024,1024,1024,344.2,0,100,4.37,4.357,4.341,4.347,0,0,4.284,93.02,421.7107612,1.312336,11,AutoTakeoff,
3200,5/2/2019 19:55,-3.251879464,-72.90722981,1.312336,421.7107612,0,0.431400932,17,5,17.416,421.7107612,1.312336,0.223694,0.439681773,0,0,-0.894776,343.4,-0.6,-2.5,0,0,1024,1024,1024,1024,344.2,0,100,4.37,4.357,4.341,4.347,0,0,4.284,93.02,421.7107612,1.312336,11,AutoTakeoff,
3300,5/2/2019 19:55,-3.251879222,-72.90722989,1.64042,422.0388452,0,0.504747391,18,5,17.416,422.0388452,1.64042,0.223694,0.504747391,0,0,-1.11847,343.4,0.1,-2.3,0,0,1024,1024,1024,1024,344.2,0,100,4.37,4.357,4.341,4.347,0,0,4.284,93.02,422.0388452,1.64042,11,AutoTakeoff,
3400,5/2/2019 19:55,-3.251879206,-72.90722984,1.64042,422.0388452,0,0.51583335,18,5,17.416,422.0388452,1.64042,0.223694,0.51583335,0,0,-1.11847,343.3,0.1,-2.4,0,0,1024,1024,1024,1024,344.2,0,100,4.37,4.357,4.341,4.347,0,0,4.284,93.02,422.0388452,1.64042,11,AutoTakeoff,
3500,5/2/2019 19:55,-3.251878803,-72.90722977,1.968504,422.3669292,0,0.663208683,18,5,17.416,422.3669292,1.968504,0.223694,0.663208683,0,0,-1.11847,343,0,-2.7,0,0,1024,1024,1024,1024,344.2,0,100,4.37,4.357,4.341,4.347,0,0,4.284,93.02,422.3669292,1.968504,11,AutoTakeoff,
3600,5/2/2019 19:55,-3.251878765,-72.90722975,1.968504,422.3669292,0,0.678884536,18,5,17.416,422.3669292,1.968504,0.223694,0.678884536,0,0,-1.11847,342.9,-0.3,-1.9,0,0,1024,1024,1024,1024,344.1,0,100,4.37,4.357,4.341,4.347,0,0,4.284,93.02,422.3669292,1.968504,11,AutoTakeoff,
3700,5/2/2019 19:55,-3.251878586,-72.90723036,2.296588,422.6950132,0,0.715751335,17,5,17.416,422.6950132,2.296588,0.223694,0.715751335,0,0,-1.11847,342.9,-0.5,-1.7,0,0,1024,1024,1024,1024,344.1,0,100,4.37,4.357,4.341,4.347,0,0,4.284,93.02,422.6950132,2.296588,11,AutoTakeoff,
3800,5/2/2019 19:55,-3.251878539,-72.90723041,2.296588,422.6950132,0,0.733585981,17,5,17.272,422.6950132,2.296588,0.223694,0.733585981,0,0,-1.11847,343,-0.3,-1.4,0,0,1024,1024,1024,1024,344.1,0,100,4.333,4.319,4.308,4.313,0,0,7.085,93.02,422.6950132,2.296588,11,AutoTakeoff,
3900,5/2/2019 19:55,-3.251878796,-72.90723041,2.624672,423.0230972,0,0.640144377,19,5,17.272,423.0230972,2.624672,0.223694,0.733585981,0,0,-1.11847,343.2,-0.4,-1.1,0,0,1024,1024,1024,1024,344.1,0,100,4.333,4.319,4.308,4.313,0,0,7.085,93.02,423.0230972,2.624672,11,AutoTakeoff,
4000,5/2/2019 19:55,-3.251878763,-72.90723045,2.624672,423.0230972,0,0.653441622,19,5,17.272,423.0230972,2.624672,0.223694,0.733585981,0,0,-1.11847,343.3,-0.7,-1.2,0,0,1024,1024,1024,1024,344.1,0,100,4.333,4.319,4.308,4.313,0,0,7.085,93.02,423.0230972,2.624672,11,AutoTakeoff,
4100,5/2/2019 19:55,-3.251878927,-72.90723083,2.952756,423.3511812,0,0.623149626,16,5,17.272,423.3511812,2.952756,0.223694,0.733585981,0,0,-1.11847,343.3,0,-1.5,0,0,1024,1024,1024,1024,344.1,0,100,4.333,4.319,4.308,4.313,0,0,7.085,93.02,423.3511812,2.952756,11,AutoTakeoff,
4200,5/2/2019 19:55,-3.251878894,-72.90723091,2.952756,423.3511812,0,0.644002645,16,5,17.272,423.3511812,2.952756,0.223694,0.733585981,0,0,-1.11847,343.1,0.6,-1.9,0,0,1024,1024,1024,1024,344.1,0,100,4.333,4.319,4.308,4.313,0,0,7.085,93.02,423.3511812,2.952756,11,AutoTakeoff,
4300,5/2/2019 19:55,-3.251878895,-72.90723093,3.28084,423.6792652,0,0.646391097,18,5,17.272,423.6792652,3.28084,0.223694,0.733585981,0,0,-1.11847,343.1,0.8,-2.1,0,0,1024,1024,1024,1024,344.1,0,100,4.333,4.319,4.308,4.313,0,0,7.085,93.02,423.6792652,3.28084,11,AutoTakeoff,
4400,5/2/2019 19:55,-3.25187889,-72.90723101,3.28084,423.6792652,0,0.658973118,18,5,17.272,423.6792652,3.28084,0.223694,0.733585981,0,0,-0.894776,343.1,0.6,-1.9,0,0,1024,1024,1024,1024,344.1,0,100,4.333,4.319,4.308,4.313,0,0,7.085,93.02,423.6792652,3.28084,6,P-GPS,
4500,5/2/2019 19:55,-3.251878825,-72.90723103,3.608924,424.0073492,0,0.683146347,19,5,17.272,424.0073492,3.608924,0.223694,0.733585981,0,0,-0.671082,343,0.4,-2.1,0,0,1024,1024,1024,1024,344.1,0,100,4.333,4.319,4.308,4.313,0,0,7.085,93.02,424.0073492,3.608924,6,P-GPS,
4600,5/2/2019 19:55,-3.251878834,-72.9072311,3.608924,424.0073492,0,0.691371413,19,5,17.272,424.0073492,3.608924,0.223694,0.733585981,0,0,-0.447388,343.1,0.2,-2.1,0,0,1024,1024,1024,1024,344.1,0,100,4.333,4.319,4.308,4.313,0,0,7.085,93.02,424.0073492,3.608924,6,P-GPS,
4700,5/2/2019 19:55,-3.251878775,-72.90723113,3.608924,424.0073492,0,0.714993461,19,5,17.272,424.0073492,3.608924,0.223694,0.733585981,0,0,-0.223694,343,0.2,-2.1,0,0,1024,1024,1024,1024,344.1,0,100,4.333,4.319,4.308,4.313,0,0,7.085,93.02,424.0073492,3.608924,6,P-GPS,
4800,5/2/2019 19:55,-3.251878792,-72.90723121,3.608924,424.0073492,0,0.72264438,19,5,17.28,424.0073492,3.608924,0.223694,0.733585981,0,0,0,343,0.1,-1.7,0,0,1024,1024,1024,1024,344.1,0,100,4.333,4.319,4.311,4.316,0,0,6.399,93.2,424.0073492,3.608924,6,P-GPS,
4900,5/2/2019 19:55,-3.251878677,-72.90723094,3.608924,424.0073492,0,0.721722464,19,5,17.28,424.0073492,3.608924,0.223694,0.733585981,0,0,0,343,-0.3,-1.8,0,0,1024,1024,1024,1024,344.1,0,100,4.333,4.319,4.311,4.316,0,0,6.399,93.2,424.0073492,3.608924,6,P-GPS,
5000,5/2/2019 19:55,-3.251878685,-72.907231,3.608924,424.0073492,0,0.726564984,19,5,17.28,424.0073492,3.608924,0.223694,0.733585981,0,0,0,343,-0.5,-2,0,0,1024,1024,1024,1024,344.1,0,100,4.333,4.319,4.311,4.316,0,0,6.399,93.2,424.0073492,3.608924,6,P-GPS,
5100,5/2/2019 19:55,-3.251878399,-72.90723092,3.608924,424.0073492,0,0.816571548,19,5,17.28,424.0073492,3.608924,0.223694,0.816571548,0,0,0,343.1,-0.6,-1.6,0,0,1024,1024,1078,1024,344.1,0,100,4.333,4.319,4.311,4.316,0,0,6.399,93.2,424.0073492,3.608924,6,P-GPS,
5200,5/2/2019 19:55,-3.251878374,-72.90723099,3.608924,424.0073492,0,0.832313019,19,5,17.28,424.0073492,3.608924,0.223694,0.832313019,0,0,0,343.2,-0.5,-1.5,0,0,1024,1024,1078,1024,344.1,0,100,4.333,4.319,4.311,4.316,0,0,6.399,93.2,424.0073492,3.608924,6,P-GPS,
5300,5/2/2019 19:55,-3.251878254,-72.90723078,3.608924,424.0073492,0,0.8549705,19,5,17.28,424.0073492,3.608924,0.223694,0.8549705,0,0,0,343.3,-0.5,-1.7,0,0,1024,1024,1518,1024,344.1,0,100,4.333,4.319,4.311,4.316,0,0,6.399,93.2,424.0073492,3.608924,6,P-GPS,
5400,5/2/2019 19:55,-3.251878203,-72.90723083,3.608924,424.0073492,0,0.877211314,19,5,17.28,424.0073492,3.608924,0.223694,0.877211314,0,0,0,343.3,-0.4,-1.7,0,0,1024,1024,1024,1024,344.1,0,100,4.333,4.319,4.311,4.316,0,0,6.399,93.2,424.0073492,3.608924,6,P-GPS,
5500,5/2/2019 19:55,-3.251878091,-72.90723078,3.608924,424.0073492,0,0.913631919,19,5,17.28,424.0073492,3.608924,0.223694,0.913631919,0,0,-0.671082,343.2,-0.1,-1.3,0,0,1024,1024,1196,1024,344.1,0,100,4.333,4.319,4.311,4.316,0,0,6.399,93.2,424.0073492,3.608924,6,P-GPS,
5600,5/2/2019 19:55,-3.251878027,-72.90723083,3.937008,424.3354332,0,0.94027234,19,5,17.28,424.3354332,3.937008,0.223694,0.94027234,0,0,-0.447388,343.1,0.1,-1.1,0,0,1024,1024,1196,1024,344.1,0,100,4.333,4.319,4.311,4.316,0,0,6.399,93.2,424.3354332,3.937008,6,P-GPS,
5700,5/2/2019 19:55,-3.251877804,-72.90723092,3.937008,424.3354332,0,1.027034154,19,5,17.28,424.3354332,3.937008,0.223694,1.027034154,0,0,-0.223694,343.1,0.3,-1.1,0,0,1024,1024,1057,1024,344.1,0,100,4.333,4.319,4.311,4.316,0,0,6.399,93.2,424.3354332,3.937008,6,P-GPS,
5800,5/2/2019 19:55,-3.251877725,-72.90723097,3.937008,424.3354332,0,1.058661451,19,5,17.28,424.3354332,3.937008,0.223694,1.058661451,0,0,-0.447388,343,0.1,-0.5,0,0,1024,1024,1024,1441,344.1,0,100,4.333,4.319,4.311,4.316,0,0,6.399,93.2,424.3354332,3.937008,6,P-GPS,
5900,5/2/2019 19:55,-3.251877698,-72.90723114,3.937008,424.3354332,0,1.084389798,19,5,17.222,424.3354332,3.937008,0.223694,1.084389798,0,0,-0.894776,343.1,-0.5,-0.8,0,0,1027,1024,1024,1684,344.1,0,100,4.331,4.305,4.29,4.297,0,0,7.697,93.2,424.3354332,3.937008,6,P-GPS,
6000,5/2/2019 19:55,-3.251877604,-72.90723117,4.265092,424.6635172,0,1.120846493,19,5,17.222,424.6635172,4.265092,0.223694,1.120846493,0,0,-0.447388,343.4,-0.3,-1.7,0,0,1219,1024,1024,1684,344.6,0,100,4.331,4.305,4.29,4.297,0,0,7.697,93.2,424.6635172,4.265092,6,P-GPS,
6100,5/2/2019 19:55,-3.25187788,-72.90723132,4.265092,424.6635172,0,1.04330712,19,5,17.222,424.6635172,4.265092,0.223694,1.120846493,0,0,-0.223694,347.4,0.3,-2.1,0,0,1219,1024,1024,1684,349.8,0,100,4.331,4.305,4.29,4.297,0,0,7.697,93.2,424.6635172,4.265092,6,P-GPS,
6200,5/2/2019 19:55,-3.251877826,-72.90723137,4.265092,424.6635172,0,1.068704102,19,5,17.222,424.6635172,4.265092,0.223694,1.120846493,0,0,0,352.5,0,-1.9,0,0,1684,1024,1024,1024,355.5,0,100,4.331,4.305,4.29,4.297,0,0,7.697,93.2,424.6635172,4.265092,6,P-GPS,
6300,5/2/2019 19:55,-3.251877776,-72.90723158,4.265092,424.6635172,0,1.114931138,19,5,17.222,424.6635172,4.265092,0.223694,1.120846493,0,0,0,354.6,-8.2,-1.1,0,0,1684,1024,1024,1024,356.4,0,100,4.331,4.305,4.29,4.297,0,0,7.697,93.2,424.6635172,4.265092,6,P-GPS,
6400,5/2/2019 19:55,-3.251877612,-72.90723167,4.265092,424.6635172,0.223694,1.183254631,19,5,17.222,424.6635172,4.265092,0.223694,1.183254631,0.223694,0,0,355.2,-19.8,-0.9,0,0,1684,1024,1024,1024,356.4,0,100,4.331,4.305,4.29,4.297,0,0,7.697,93.2,424.6635172,4.265092,6,P-GPS,
6500,5/2/2019 19:55,-3.251877371,-72.90723152,4.265092,424.6635172,1.11847,1.242647678,19,5,17.222,424.6635172,4.265092,1.11847,1.242647678,1.11847,0,0,355.4,-23.4,-1.1,0,0,1324,1024,1024,1024,356.4,0,100,4.331,4.305,4.29,4.297,0,0,7.697,93.2,424.6635172,4.265092,6,P-GPS,
6600,5/2/2019 19:55,-3.251876597,-72.90723164,4.265092,424.6635172,2.0356154,1.522063697,19,5,17.222,424.6635172,4.265092,2.0356154,1.522063697,2.013246,-0.223694,0,355.5,-24,-1,0,0,1024,1024,1024,1024,356.4,0,100,4.331,4.305,4.29,4.297,0,0,7.697,93.2,424.6635172,4.265092,6,P-GPS,
6700,5/2/2019 19:55,-3.251875703,-72.90723165,4.265092,424.6635172,2.908022,1.835830111,19,5,17.222,424.6635172,4.265092,2.908022,1.835830111,2.908022,-0.223694,0,355.6,-23.6,-0.9,0,0,1024,1024,1024,1024,356.4,0,100,4.331,4.305,4.29,4.297,0,0,7.697,93.2,424.6635172,4.265092,6,P-GPS,
6800,5/2/2019 19:55,-3.251874233,-72.90723181,4.265092,424.6635172,3.802798,2.368848501,19,5,17.222,424.6635172,4.265092,3.802798,2.368848501,3.802798,-0.223694,0,355.5,-13.3,-1,0,0,1379,1024,1024,1024,356.4,0,100,4.331,4.305,4.29,4.297,0,0,7.697,93.2,424.6635172,4.265092,6,P-GPS,
6900,5/2/2019 19:55,-3.251872742,-72.90723218,4.265092,424.6635172,4.026492,2.929875422,19,5,17.221,424.6635172,4.265092,4.026492,2.929875422,4.026492,-0.223694,0,355.2,5.4,-0.8,0,0,1569,1024,1024,1472,356.4,0,100,4.322,4.306,4.294,4.299,0,0,6.932,93.2,424.6635172,4.265092,6,P-GPS,
7000,5/2/2019 19:55,-3.251871084,-72.90723242,4.265092,424.6635172,3.802798,3.538221898,19,5,17.221,424.6635172,4.265092,4.026492,3.538221898,3.802798,-0.223694,0,354.1,8.6,-0.8,0,0,1684,1024,1024,1684,356.4,0,100,4.322,4.306,4.294,4.299,0,0,6.932,93.2,424.6635172,4.265092,6,P-GPS,
7100,5/2/2019 19:55,-3.25186977,-72.90723301,4.265092,424.6635172,3.579104,4.05492139,19,5,17.221,424.6635172,4.265092,4.026492,4.05492139,3.579104,-0.223694,0,354.2,-0.5,-1,0,0,1684,1024,1024,1684,357.1,0,100,4.322,4.306,4.294,4.299,0,0,6.932,93.2,424.6635172,4.265092,6,P-GPS,
7200,5/2/2019 19:55,-3.251868264,-72.90723322,4.265092,424.6635172,3.802798,4.606627444,19,5,17.221,424.6635172,4.265092,4.026492,4.606627444,3.802798,-0.223694,0,358.6,-13.5,-2.7,0,0,1684,1024,1024,1108,2.1,0,100,4.322,4.306,4.294,4.299,0,0,6.932,93.2,424.6635172,4.265092,6,P-GPS,
7300,5/2/2019 19:55,-3.251866673,-72.90723348,4.265092,424.6635172,4.4962494,5.19376657,19,5,17.221,424.6635172,4.265092,4.4962494,5.19376657,4.47388,-0.447388,0,4.5,-21.8,-4.3,0,0,1684,1024,1024,1108,8.1,0,100,4.322,4.306,4.294,4.299,0,0,6.932,93.2,424.6635172,4.265092,6,P-GPS,
7400,5/2/2019 19:55,-3.251864696,-72.90723375,4.265092,424.6635172,5.3910254,5.918569743,19,5,17.221,424.6635172,4.265092,5.3910254,5.918569743,5.368656,-0.447388,0,8.5,-23.7,-3.7,0,0,1684,1024,1024,1024,10.9,0,100,4.322,4.306,4.294,4.299,0,0,6.932,93.2,424.6635172,4.265092,6,P-GPS,
7500,5/2/2019 19:55,-3.251862053,-72.9072347,4.265092,424.6635172,6.263432,6.936384736,19,5,17.221,424.6635172,4.265092,6.263432,6.936384736,6.263432,-0.223694,0,9.3,-23.7,-2,0,0,1684,1024,1024,1486,11,0,100,4.322,4.306,4.294,4.299,0,0,6.932,93.2,424.6635172,4.265092,6,P-GPS,
7600,5/2/2019 19:55,-3.251859355,-72.90723499,4.265092,424.6635172,7.158208,7.918799466,19,5,17.221,424.6635172,4.265092,7.158208,7.918799466,7.158208,-0.223694,0,9.4,-23.3,-1.1,0,0,1684,1024,1024,1684,11,0,100,4.322,4.306,4.294,4.299,0,0,6.932,93.2,424.6635172,4.265092,6,P-GPS,
7700,5/2/2019 19:55,-3.251856512,-72.90723546,4.265092,424.6635172,7.82929,8.969029158,19,5,17.221,424.6635172,4.265092,7.82929,8.969029158,7.82929,0,0,10.1,-23.3,-0.7,0,0,1684,1024,1024,1187,11.9,0,100,4.322,4.306,4.294,4.299,0,0,6.932,93.2,424.6635172,4.265092,6,P-GPS,
7800,5/2/2019 19:55,-3.25185316,-72.90723567,4.265092,424.6635172,8.724066,10.1827103,19,5,17.221,424.6635172,4.265092,8.724066,10.1827103,8.724066,0,0,14.1,-23.4,-2,0,0,1684,1024,1024,1024,17.1,0,100,4.322,4.306,4.294,4.299,0,0,6.932,93.2,424.6635172,4.265092,6,P-GPS,
7900,5/2/2019 19:56,-3.251849798,-72.90723603,4.265092,424.6635172,9.618842,11.41197543,19,5,17.221,424.6635172,4.265092,9.618842,11.41197543,9.618842,0,0,17.6,-23.5,-2.4,0,0,1684,1024,1024,595,20.5,0,100,4.322,4.306,4.294,4.299,0,0,6.932,93.2,424.6635172,4.265092,6,P-GPS,
8000,5/2/2019 19:56,-3.25184583,-72.90723614,4.265092,424.6635172,9.618842,12.84432456,19,5,17.214,424.6635172,4.265092,9.618842,12.84432456,10.289924,0.223694,0,18.1,-23.5,-1,0,0,1684,1024,1024,364,20.6,0,100,4.319,4.303,4.293,4.298,0,0,7.431,93.2,424.6635172,4.265092,6,P-GPS,
8100,5/2/2019 19:56,-3.251841926,-72.9072364,4.265092,424.6635172,10.961006,14.26528917,18,5,17.214,424.6635172,4.265092,10.961006,14.26528917,10.961006,0.447388,0,17.7,-23.5,0.3,0,0,1684,1024,1024,364,19.9,0,100,4.319,4.303,4.293,4.298,0,0,7.431,93.2,424.6635172,4.265092,6,P-GPS,
8200,5/2/2019 19:56,-3.251837401,-72.90723635,4.265092,424.6635172,11.8781514,15.89573542,18,5,17.214,424.6635172,4.265092,11.8781514,15.89573542,11.855782,0.671082,0,12.5,-23.7,2.3,0,0,1684,1024,1024,841,14.8,0,100,4.319,4.303,4.293,4.298,0,0,7.431,93.2,424.6635172,4.265092,6,P-GPS,
8300,5/2/2019 19:56,-3.251832418,-72.90723659,4.265092,424.6635172,12.5492334,17.70882603,19,5,17.214,424.6635172,4.265092,12.5492334,17.70882603,12.526864,0.894776,0,6.5,-23.5,3.6,0,0,1540,1024,1024,840,8.8,0,100,4.319,4.303,4.293,4.298,0,0,7.431,93.2,424.6635172,4.265092,6,P-GPS,
8400,5/2/2019 19:56,-3.251827327,-72.90723633,4.265092,424.6635172,13.2426848,19.54133921,19,5,17.214,424.6635172,4.265092,13.2426848,19.54133921,13.197946,1.11847,0,2.4,-23.4,2.9,0,0,1024,1024,1024,364,5.5,0,100,4.319,4.303,4.293,4.298,0,0,7.431,93.2,424.6635172,4.265092,6,P-GPS,
8500,5/2/2019 19:56,-3.251822577,-72.90723666,4.265092,424.6635172,13.6677034,21.27739569,18,5,17.214,424.6635172,4.265092,13.6677034,21.27739569,13.645334,0.671082,0,0.4,-23.6,1.9,0,0,1024,1024,1024,364,5.2,0,100,4.319,4.303,4.293,4.298,0,0,7.431,93.2,424.6635172,4.265092,6,P-GPS,
8600,5/2/2019 19:56,-3.251816982,-72.9072364,4.265092,424.6635172,14.3387854,23.29790101,18,5,17.214,424.6635172,4.265092,14.3387854,23.29790101,14.316416,0.671082,0,357.6,-16.9,3.2,0,0,1024,1024,1024,364,0.8,0,100,4.319,4.303,4.293,4.298,0,0,7.431,93.2,424.6635172,4.265092,6,P-GPS,
8700,5/2/2019 19:56,-3.251811143,-72.90723633,4.265092,424.6635172,14.5624794,25.41709399,19,5,17.214,424.6635172,4.265092,14.5624794,25.41709399,14.54011,0.671082,-0.223694,352.9,8.8,-1.2,0,0,1024,1024,1024,983,355,0,100,4.319,4.303,4.293,4.298,0,0,7.431,93.2,424.6635172,4.265092,6,P-GPS,
8800,5/2/2019 19:56,-3.251805498,-72.90723606,4.265092,424.6635172,13.8913974,27.46194314,19,5,17.214,424.6635172,4.265092,14.5624794,27.46194314,13.869028,0.671082,-0.223694,346.1,21,-6.9,0,0,1202,1024,1024,1024,348.9,0,100,4.319,4.303,4.293,4.298,0,0,7.431,93.2,424.6635172,4.265092,6,P-GPS,
8900,5/2/2019 19:56,-3.251800147,-72.90723613,4.265092,424.6635172,12.750558,29.41092614,19,5,17.214,424.6635172,4.265092,14.5624794,29.41092614,12.750558,0.447388,0,341.9,25.6,-8.8,0,0,1024,1024,1024,1024,346.5,0,100,4.319,4.303,4.293,4.298,0,0,7.431,93.2,424.6635172,4.265092,6,P-GPS,
9000,5/2/2019 19:56,-3.251795309,-72.90723594,4.265092,424.6635172,11.632088,31.16702856,19,5,17.192,424.6635172,4.265092,14.5624794,31.16702856,11.632088,0.447388,0,341,27.5,-8.2,0,0,1024,1024,1024,1024,346.5,0,100,4.313,4.283,4.279,4.292,0,0,7.492,93.38,424.6635172,4.265092,6,P-GPS,
9100,5/2/2019 19:56,-3.251790532,-72.90723545,4.265092,424.6635172,10.3122934,32.89567034,19,5,17.192,424.6635172,4.265092,14.5624794,32.89567034,10.289924,0.671082,0.223694,340.6,26.7,-10,0,0,1024,1024,1024,1024,346.5,0,100,4.313,4.283,4.279,4.292,0,0,7.492,93.38,424.6635172,4.265092,6,P-GPS,
9200,5/2/2019 19:56,-3.25178665,-72.9072352,3.937008,424.3354332,9.1938234,34.30446304,19,5,17.192,424.6635172,4.265092,14.5624794,34.30446304,9.171454,0.671082,0.223694,340.8,22.6,-10,0,0,1024,1024,1024,1024,346.5,0,100,4.313,4.283,4.279,4.292,0,0,7.492,93.38,424.3354332,3.937008,6,P-GPS,
9300,5/2/2019 19:56,-3.251782142,-72.90723472,3.937008,424.3354332,8.0753534,35.93930561,19,5,17.192,424.6635172,4.265092,14.5624794,35.93930561,8.052984,0.671082,0,341.5,18.7,-10.4,0,0,1024,1024,1024,1024,346.5,0,100,4.313,4.283,4.279,4.292,0,0,7.492,93.38,424.3354332,3.937008,6,P-GPS,
9400,5/2/2019 19:56,-3.251779089,-72.90723454,3.608924,424.0073492,7.1805774,37.0488857,19,5,17.192,424.6635172,4.265092,14.5624794,37.0488857,7.158208,0.447388,0,341.6,17.6,-10.4,0,0,1024,1024,1024,1024,346.5,0,100,4.313,4.283,4.279,4.292,0,0,7.492,93.38,424.0073492,3.608924,6,P-GPS,
9500,5/2/2019 19:56,-3.251775569,-72.90723413,3.608924,424.0073492,6.5094954,38.32677288,18,5,17.192,424.6635172,4.265092,14.5624794,38.32677288,6.487126,0.447388,0,341.4,18.1,-9.8,0,0,1024,1024,1024,1024,346.5,0,100,4.313,4.283,4.279,4.292,0,0,7.492,93.38,424.0073492,3.608924,6,P-GPS,
9600,5/2/2019 19:56,-3.251773154,-72.90723404,3.937008,424.3354332,5.59235,39.206038,18,5,17.192,424.6635172,4.265092,14.5624794,39.206038,5.59235,0.223694,0,341.3,19,-9.5,0,0,1024,1024,1024,1024,346.5,0,100,4.313,4.283,4.279,4.292,0,0,7.492,93.38,424.3354332,3.937008,6,P-GPS,
9700,5/2/2019 19:56,-3.251770821,-72.90723398,3.937008,424.3354332,4.697574,40.05610364,19,5,17.192,424.6635172,4.265092,14.5624794,40.05610364,4.697574,0.223694,0,341.1,19.7,-9.5,0,0,1024,1024,1024,1024,346.5,0,100,4.313,4.283,4.279,4.292,0,0,7.492,93.38,424.3354332,3.937008,6,P-GPS,
9800,5/2/2019 19:56,-3.251769088,-72.90723398,3.937008,424.3354332,3.802798,40.68766534,19,5,17.192,424.6635172,4.265092,14.5624794,40.68766534,3.802798,0,0,341,20.2,-9.5,0,0,1024,1024,1024,1024,346.5,0,100,4.313,4.283,4.279,4.292,0,0,7.492,93.38,424.3354332,3.937008,6,P-GPS,
9900,5/2/2019 19:56,-3.251767135,-72.90723382,3.937008,424.3354332,3.802798,41.39829529,19,5,17.192,424.6635172,4.265092,14.5624794,41.39829529,3.131716,0,0,341.2,19,-9,0,0,1024,1024,1024,1024,346.5,0,100,4.313,4.283,4.279,4.292,0,0,7.492,93.38,424.3354332,3.937008,6,P-GPS,
10000,5/2/2019 19:56,-3.251766031,-72.90723388,3.937008,424.3354332,2.23694,41.80118244,19,5,17.186,424.6635172,4.265092,14.5624794,41.80118244,2.23694,0,0,341.6,15.4,-7.3,0,0,1024,1024,1024,1024,346.5,0,100,4.313,4.296,4.286,4.291,0,0,7.86,93.38,424.3354332,3.937008,6,P-GPS,
10100,5/2/2019 19:56,-3.251765073,-72.90723381,3.937008,424.3354332,1.789552,42.14993573,19,5,17.186,424.6635172,4.265092,14.5624794,42.14993573,1.789552,0,0,341.9,11.8,-5.7,0,0,1024,1024,1024,1024,346.5,0,100,4.313,4.296,4.286,4.291,0,0,7.86,93.38,424.3354332,3.937008,6,P-GPS,
10200,5/2/2019 19:56,-3.251764425,-72.9072339,3.937008,424.3354332,1.342164,42.38746855,19,5,17.186,424.6635172,4.265092,14.5624794,42.38746855,1.342164,0,0,342.1,9.2,-4.2,0,0,1024,1024,1024,1024,346.5,0,100,4.313,4.296,4.286,4.291,0,0,7.86,93.38,424.3354332,3.937008,6,P-GPS,
10300,5/2/2019 19:56,-3.251764153,-72.90723366,3.937008,424.3354332,0.894776,42.48392524,19,5,17.186,424.6635172,4.265092,14.5624794,42.48392524,0.894776,0,0,342.2,7.2,-3.1,0,0,1024,1024,1024,1024,346.5,0,100,4.313,4.296,4.286,4.291,0,0,7.86,93.38,424.3354332,3.937008,6,P-GPS,
10400,5/2/2019 19:56,-3.251763779,-72.90723372,4.265092,424.6635172,0.671082,42.62073627,19,5,17.186,424.6635172,4.265092,14.5624794,42.62073627,0.671082,0,0,342.4,5.9,-2.8,0,0,1024,1024,1024,1024,346.5,0,100,4.313,4.296,4.286,4.291,0,0,7.86,93.38,424.6635172,4.265092,6,P-GPS,
10500,5/2/2019 19:56,-3.251763928,-72.90723409,4.265092,424.6635172,0.223694,42.5708675,19,5,17.186,424.6635172,4.265092,14.5624794,42.62073627,0.223694,0,0,342.4,4.7,-2.4,0,0,1024,1024,1024,1024,346.5,0,100,4.313,4.296,4.286,4.291,0,0,7.86,93.38,424.6635172,4.265092,6,P-GPS,
10600,5/2/2019 19:56,-3.251763739,-72.90723418,4.265092,424.6635172,0.223694,42.6407494,19,5,17.186,424.6635172,4.265092,14.5624794,42.6407494,0.223694,0,0,342.4,3.7,-2.1,0,0,1024,1024,1024,1024,346.5,0,100,4.313,4.296,4.286,4.291,0,0,7.86,93.38,424.6635172,4.265092,6,P-GPS,
10700,5/2/2019 19:56,-3.251764117,-72.9072343,4.265092,424.6635172,0,42.50426645,19,5,17.186,424.6635172,4.265092,14.5624794,42.6407494,0,0,0,342.5,2.9,-1.8,0,0,1024,1024,1024,1024,346.5,0,100,4.313,4.296,4.286,4.291,0,0,7.86,93.38,424.6635172,4.265092,6,P-GPS,
10800,5/2/2019 19:56,-3.251764048,-72.90723439,4.265092,424.6635172,0,42.53084126,19,5,17.186,424.6635172,4.265092,14.5624794,42.6407494,0,0,0,342.6,2,-1.9,0,0,1024,1024,1024,1024,346.5,0,100,4.313,4.296,4.286,4.291,0,0,7.86,93.38,424.6635172,4.265092,6,P-GPS,
10900,5/2/2019 19:56,-3.251764578,-72.90723451,4.265092,424.6635172,0,42.33891212,19,5,17.186,424.6635172,4.265092,14.5624794,42.6407494,0,0,0,342.6,1.4,-1.9,0,0,1024,1024,1024,1024,346.5,0,100,4.313,4.296,4.286,4.291,0,0,7.86,93.38,424.6635172,4.265092,6,P-GPS,
11000,5/2/2019 19:56,-3.251764591,-72.90723461,4.265092,424.6635172,0.223694,42.33563128,19,5,17.186,424.6635172,4.265092,14.5624794,42.6407494,-0.223694,0,0,342.6,1,-1.8,0,0,1024,1024,1024,1024,346.5,0,100,4.313,4.296,4.286,4.291,0,0,7.86,93.38,424.6635172,4.265092,6,P-GPS,
11100,5/2/2019 19:56,-3.251765042,-72.9072346,4.265092,424.6635172,0.223694,42.17060502,19,5,17.209,424.6635172,4.265092,14.5624794,42.6407494,-0.223694,0,0,342.6,0.5,-1.7,0,0,1024,1024,1024,1024,346.5,0,100,4.318,4.303,4.292,4.297,0,0,6.925,93.38,424.6635172,4.265092,6,P-GPS,
11200,5/2/2019 19:56,-3.251765101,-72.9072347,4.265092,424.6635172,0.223694,42.15091998,19,5,17.209,424.6635172,4.265092,14.5624794,42.6407494,-0.223694,0,0,342.7,0,-1.7,0,0,1024,1024,1024,1024,346.5,0,100,4.318,4.303,4.292,4.297,0,0,6.925,93.38,424.6635172,4.265092,6,P-GPS,
11300,5/2/2019 19:56,-3.251765479,-72.90723471,4.265092,424.6635172,0.223694,42.0131247,19,5,17.209,424.6635172,4.265092,14.5624794,42.6407494,-0.223694,0,0,342.7,-0.2,-1.5,0,0,1024,1024,1024,1024,346.5,0,100,4.318,4.303,4.292,4.297,0,0,6.925,93.38,424.6635172,4.265092,6,P-GPS,
11400,5/2/2019 19:56,-3.251765547,-72.90723482,4.265092,424.6635172,0.223694,41.98983074,19,5,17.209,424.6635172,4.265092,14.5624794,42.6407494,-0.223694,0,0,342.7,-0.5,-1.3,0,0,1024,1024,1024,1024,346.5,0,100,4.318,4.303,4.292,4.297,0,0,6.925,93.38,424.6635172,4.265092,6,P-GPS,
11500,5/2/2019 19:56,-3.251765791,-72.90723497,4.265092,424.6635172,0.223694,41.90321656,19,5,17.209,424.6635172,4.265092,14.5624794,42.6407494,-0.223694,0,0,342.6,-0.5,-1.2,0,0,1024,1024,1024,1024,346.5,0,100,4.318,4.303,4.292,4.297,0,0,6.925,93.38,424.6635172,4.265092,6,P-GPS,
11600,5/2/2019 19:56,-3.251765842,-72.9072351,4.265092,424.6635172,0,41.88648428,19,5,17.209,424.6635172,4.265092,14.5624794,42.6407494,0,0,0,342.6,-0.6,-0.9,0,0,1024,1024,1024,1024,346.5,0,100,4.318,4.303,4.292,4.297,0,0,6.925,93.38,424.6635172,4.265092,6,P-GPS,
11700,5/2/2019 19:56,-3.251766039,-72.90723521,4.265092,424.6635172,0,41.81660239,18,5,17.209,424.6635172,4.265092,14.5624794,42.6407494,0,0,0,342.6,-0.5,-0.8,0,0,1024,1024,1024,1024,346.5,0,100,4.318,4.303,4.292,4.297,0,0,6.925,93.38,424.6635172,4.265092,6,P-GPS,
11800,5/2/2019 19:56,-3.251766065,-72.90723534,4.265092,424.6635172,0,41.80905646,18,5,17.209,424.6635172,4.265092,14.5624794,42.6407494,0,0,0,342.6,-0.3,-0.5,0,0,1024,1024,1024,1024,346.5,0,100,4.318,4.303,4.292,4.297,0,0,6.925,93.38,424.6635172,4.265092,6,P-GPS,
11900,5/2/2019 19:56,-3.251766283,-72.90723541,4.265092,424.6635172,0,41.73064438,18,5,17.209,424.6635172,4.265092,14.5624794,42.6407494,0,0,0,342.6,-0.2,-0.6,0,0,1024,1024,1024,1024,346.5,0,100,4.318,4.303,4.292,4.297,0,0,6.925,93.38,424.6635172,4.265092,6,P-GPS,
12000,5/2/2019 19:56,-3.251766296,-72.90723553,4.265092,424.6635172,0,41.72801971,18,5,17.209,424.6635172,4.265092,14.5624794,42.6407494,0,0,0,342.6,-0.1,-0.7,0,0,1024,1024,1024,1024,346.5,0,100,4.318,4.303,4.292,4.297,0,0,6.925,93.38,424.6635172,4.265092,6,P-GPS,
12100,5/2/2019 19:56,-3.251766268,-72.90723557,4.265092,424.6635172,0,41.7385184,18,5,17.197,424.6635172,4.265092,14.5624794,42.6407494,0,0,0,342.7,-0.1,-0.9,0,0,1024,1024,1024,1024,346.5,0,100,4.316,4.299,4.289,4.293,0,0,6.957,93.38,424.6635172,4.265092,6,P-GPS,
12200,5/2/2019 19:56,-3.251766254,-72.90723567,4.265092,424.6635172,0,41.74573624,18,5,17.197,424.6635172,4.265092,14.5624794,42.6407494,0,0,0,342.7,-0.2,-1.3,0,0,1024,1024,1024,1024,346.5,0,100,4.316,4.299,4.289,4.293,0,0,6.957,93.38,424.6635172,4.265092,6,P-GPS,
12300,5/2/2019 19:56,-3.251766157,-72.90723558,4.265092,424.6635172,0,41.77920081,18,5,17.197,424.6635172,4.265092,14.5624794,42.6407494,0,0,0,342.7,-0.1,-1.4,0,0,1024,1024,1024,1024,346.5,0,100,4.316,4.299,4.289,4.293,0,0,6.957,93.38,424.6635172,4.265092,6,P-GPS,
12400,5/2/2019 19:56,-3.251766113,-72.90723568,4.265092,424.6635172,0,41.79691735,18,5,17.197,424.6635172,4.265092,14.5624794,42.6407494,0,0,0,342.7,0,-1.5,0,0,1024,1024,1024,1024,346.5,0,100,4.316,4.299,4.289,4.293,0,0,6.957,93.38,424.6635172,4.265092,6,P-GPS,
12500,5/2/2019 19:56,-3.251765944,-72.90723551,4.265092,424.6635172,0,41.85597247,18,5,17.197,424.6635172,4.265092,14.5624794,42.6407494,0,0,0,342.7,0.2,-1.6,0,0,1024,1024,1024,1024,346.5,0,100,4.316,4.299,4.289,4.293,0,0,6.957,93.38,424.6635172,4.265092,6,P-GPS,
12600,5/2/2019 19:56,-3.251765878,-72.9072356,4.265092,424.6635172,0,41.88156302,18,5,17.197,424.6635172,4.265092,14.5624794,42.6407494,0,0,0,342.6,0.3,-1.7,0,0,1024,1024,1024,1024,346.5,0,100,4.316,4.299,4.289,4.293,0,0,6.957,93.38,424.6635172,4.265092,6,P-GPS,
12700,5/2/2019 19:56,-3.251765794,-72.90723548,4.265092,424.6635172,0,41.91010633,18,5,17.197,424.6635172,4.265092,14.5624794,42.6407494,0,0,0,342.6,0.5,-1.6,0,0,1024,1024,1024,1024,346.5,0,100,4.316,4.299,4.289,4.293,0,0,6.957,93.38,424.6635172,4.265092,6,P-GPS,
12800,5/2/2019 19:56,-3.251765726,-72.90723556,4.265092,424.6635172,0,41.93602496,18,5,17.197,424.6635172,4.265092,14.5624794,42.6407494,0,0,0,342.6,0.6,-1.4,0,0,1024,1024,1024,1024,346.5,0,100,4.316,4.299,4.289,4.293,0,0,6.957,93.38,424.6635172,4.265092,6,P-GPS,
12900,5/2/2019 19:56,-3.251765555,-72.90723545,4.265092,424.6635172,0,41.9967205,19,5,17.197,424.6635172,4.265092,14.5624794,42.6407494,0,0,0,342.6,0.6,-1.5,0,0,1024,1024,1024,1024,346.5,0,100,4.316,4.299,4.289,4.293,0,0,6.957,93.38,424.6635172,4.265092,6,P-GPS,
13000,5/2/2019 19:56,-3.251765477,-72.90723551,4.265092,424.6635172,0,42.02591998,19,5,17.197,424.6635172,4.265092,14.5624794,42.6407494,0,0,0,342.6,0.7,-1.4,0,0,1024,1024,1024,1024,346.5,0,100,4.316,4.299,4.289,4.293,0,0,6.957,93.38,424.6635172,4.265092,6,P-GPS,
13100,5/2/2019 19:56,-3.251765333,-72.90723555,4.265092,424.6635172,0.223694,42.07906959,19,5,17.197,424.6635172,4.265092,14.5624794,42.6407494,0.223694,0,0,342.5,0.9,-1.4,0,0,1024,1024,1024,1024,346.5,0,100,4.316,4.299,4.289,4.293,0,0,6.957,93.38,424.6635172,4.265092,6,P-GPS,
13200,5/2/2019 19:56,-3.251765247,-72.9072356,4.265092,424.6635172,0.223694,42.11122182,19,5,17.194,424.6635172,4.265092,14.5624794,42.6407494,0.223694,0,0,342.6,1.1,-1.7,0,0,1024,1024,1024,1024,346.5,0,100,4.314,4.299,4.288,4.292,0,0,6.974,93.38,424.6635172,4.265092,6,P-GPS,
13300,5/2/2019 19:56,-3.251765101,-72.90723548,4.265092,424.6635172,0.223694,42.16273101,19,5,17.194,424.6635172,4.265092,14.5624794,42.6407494,0.223694,0,0,342.6,1.4,-1.9,0,0,1024,1024,1024,1024,346.5,0,100,4.314,4.299,4.288,4.292,0,0,6.974,93.38,424.6635172,4.265092,6,P-GPS,
13400,5/2/2019 19:56,-3.251765015,-72.90723551,4.265092,424.6635172,0.223694,42.19422707,19,5,17.194,424.6635172,4.265092,14.5624794,42.6407494,0.223694,0,0,342.7,1.7,-2,0,0,1024,1024,1024,1024,346.5,0,100,4.314,4.299,4.288,4.292,0,0,6.974,93.38,424.6635172,4.265092,6,P-GPS,
13500,5/2/2019 19:56,-3.251764909,-72.90723556,4.265092,424.6635172,0.223694,42.23392524,19,5,17.194,424.6635172,4.265092,14.5624794,42.6407494,0.223694,0,0,342.7,1.8,-2.2,0,0,1024,1024,1024,1024,346.5,0,100,4.314,4.299,4.288,4.292,0,0,6.974,93.38,424.6635172,4.265092,6,P-GPS,
13600,5/2/2019 19:56,-3.251764841,-72.90723559,4.265092,424.6635172,0.223694,42.2591877,19,5,17.194,424.6635172,4.265092,14.5624794,42.6407494,0.223694,0,0,342.7,1.8,-2.3,0,0,1024,1024,1024,1024,346.5,0,100,4.314,4.299,4.288,4.292,0,0,6.974,93.38,424.6635172,4.265092,6,P-GPS,
13700,5/2/2019 19:56,-3.251764616,-72.90723567,4.265092,424.6635172,0.223694,42.34252104,19,5,17.194,424.6635172,4.265092,14.5624794,42.6407494,0.223694,0,0,342.6,1.9,-2.1,0,0,1024,1024,1024,1024,346.5,0,100,4.314,4.299,4.288,4.292,0,0,6.974,93.38,424.6635172,4.265092,6,P-GPS,
13800,5/2/2019 19:56,-3.251764551,-72.90723571,4.265092,424.6635172,0.223694,42.36679926,19,5,17.194,424.6635172,4.265092,14.5624794,42.6407494,0.223694,0,0,342.6,1.9,-2,0,0,1024,1024,1024,1024,346.5,0,100,4.314,4.299,4.288,4.292,0,0,6.974,93.38,424.6635172,4.265092,6,P-GPS,
13900,5/2/2019 19:56,-3.25176416,-72.90723565,4.265092,424.6635172,0.223694,42.50853154,19,5,17.194,424.6635172,4.265092,14.5624794,42.6407494,0.223694,0,0,342.6,2.1,-1.9,0,0,1024,1024,1024,1024,346.5,0,100,4.314,4.299,4.288,4.292,0,0,6.974,93.38,424.6635172,4.265092,6,P-GPS,
14000,5/2/2019 19:56,-3.251764073,-72.90723568,4.265092,424.6635172,0.223694,42.54068378,19,5,17.194,424.6635172,4.265092,14.5624794,42.6407494,0.223694,0,0,342.7,2.3,-2.1,0,0,1024,1024,1024,1024,346.5,0,100,4.314,4.299,4.288,4.292,0,0,6.974,93.38,424.6635172,4.265092,6,P-GPS,
14100,5/2/2019 19:56,-3.251764141,-72.90723563,4.265092,424.6635172,0,42.51509322,19,5,17.194,424.6635172,4.265092,14.5624794,42.6407494,0,0,0,342.6,2.3,-2.4,0,0,1024,1024,1024,1024,346.5,0,100,4.314,4.299,4.288,4.292,0,0,6.974,93.38,424.6635172,4.265092,6,P-GPS,
14200,5/2/2019 19:56,-3.251764089,-72.90723566,4.265092,424.6635172,0,42.53477826,19,5,17.185,424.6635172,4.265092,14.5624794,42.6407494,0,0,0,342.7,2.6,-2.1,0,0,1024,1024,1024,1024,346.5,0,100,4.313,4.297,4.286,4.289,0,0,7.094,93.56,424.6635172,4.265092,6,P-GPS,
14300,5/2/2019 19:56,-3.251763833,-72.90723577,3.937008,424.3354332,0,42.62959454,19,5,17.185,424.6635172,4.265092,14.5624794,42.6407494,0,0,0,342.7,2.6,-1.8,0,0,1024,1024,1024,1024,346.5,0,100,4.313,4.297,4.286,4.289,0,0,7.094,93.56,424.3354332,3.937008,6,P-GPS,
14400,5/2/2019 19:56,-3.251763784,-72.9072358,3.937008,424.3354332,0,42.64796724,19,5,17.185,424.6635172,4.265092,14.5624794,42.64796724,0,0,0,342.7,2.5,-1.8,0,0,1024,1024,1024,1024,346.5,0,100,4.313,4.297,4.286,4.289,0,0,7.094,93.56,424.3354332,3.937008,6,P-GPS,
14500,5/2/2019 19:56,-3.251763684,-72.90723589,3.937008,424.3354332,0,42.68602499,19,5,17.185,424.6635172,4.265092,14.5624794,42.68602499,0,0,0,342.7,2.5,-1.8,0,0,1024,1024,1024,1024,346.5,0,100,4.313,4.297,4.286,4.289,0,0,7.094,93.56,424.3354332,3.937008,6,P-GPS,
14600,5/2/2019 19:56,-3.251763648,-72.90723592,3.937008,424.3354332,0,42.69980452,19,5,17.185,424.6635172,4.265092,14.5624794,42.69980452,0,0,0,342.6,2.6,-2,0,0,1024,1024,1024,1024,346.5,0,100,4.313,4.297,4.286,4.289,0,0,7.094,93.56,424.3354332,3.937008,6,P-GPS,
14700,5/2/2019 19:56,-3.251763515,-72.90723597,3.937008,424.3354332,0,42.74901712,19,5,17.185,424.6635172,4.265092,14.5624794,42.74901712,0,0,0,342.6,2.4,-2.3,0,0,1024,1024,1024,1024,346.5,0,100,4.313,4.297,4.286,4.289,0,0,7.094,93.56,424.3354332,3.937008,6,P-GPS,
14800,5/2/2019 19:56,-3.251763493,-72.907236,3.937008,424.3354332,0,42.7575473,19,5,17.185,424.6635172,4.265092,14.5624794,42.7575473,0,0,0,342.6,2.3,-2.3,0,0,1024,1024,1024,1024,346.5,0,100,4.313,4.297,4.286,4.289,0,0,7.094,93.56,424.3354332,3.937008,6,P-GPS,
14900,5/2/2019 19:56,-3.251763492,-72.90723593,3.937008,424.3354332,0,42.75656305,19,5,17.185,424.6635172,4.265092,14.5624794,42.7575473,0,0,0,342.6,2,-2.2,0,0,1581,1024,1024,1024,346.5,0,100,4.313,4.297,4.286,4.289,0,0,7.094,93.56,424.3354332,3.937008,6,P-GPS,
15000,5/2/2019 19:56,-3.25176349,-72.90723597,3.937008,424.3354332,0,42.75820347,19,5,17.185,424.6635172,4.265092,14.5624794,42.75820347,0,0,0,342.6,2.1,-2,0,0,1684,1024,1024,1024,346.5,0,100,4.313,4.297,4.286,4.289,0,0,7.094,93.56,424.3354332,3.937008,6,P-GPS,
15100,5/2/2019 19:56,-3.251763435,-72.9072361,3.937008,424.3354332,0,42.7801851,19,5,17.185,424.6635172,4.265092,14.5624794,42.7801851,0,0,0,342.8,-1.1,-1.5,0,0,1621,1024,1024,1024,346.5,0,100,4.313,4.297,4.286,4.289,0,0,7.094,93.56,424.3354332,3.937008,6,P-GPS,
15200,5/2/2019 19:56,-3.251763388,-72.90723617,3.937008,424.3354332,0.223694,42.79888588,19,5,17.184,424.6635172,4.265092,14.5624794,42.79888588,0.223694,0,0,342.9,-13.2,-1.1,0,0,1284,1024,1024,1024,346.5,0,100,4.311,4.296,4.285,4.287,0,0,7.134,93.56,424.3354332,3.937008,6,P-GPS,
15300,5/2/2019 19:56,-3.251763034,-72.90723619,3.937008,424.3354332,0.9171454,42.92815098,19,5,17.184,424.6635172,4.265092,14.5624794,42.92815098,0.894776,-0.223694,0,342.9,-21.6,-1.2,0,0,1024,1024,1024,1024,346.5,0,100,4.311,4.296,4.285,4.287,0,0,7.134,93.56,424.3354332,3.937008,6,P-GPS,Upward Obstacle Detected
15400,5/2/2019 19:56,-3.251762441,-72.90723639,3.937008,424.3354332,1.8342908,43.14796726,19,5,17.184,424.6635172,4.265092,14.5624794,43.14796726,1.789552,-0.447388,0,342.9,-19.5,-1.3,0,0,1024,1024,1024,1024,346.5,0,100,4.311,4.296,4.285,4.287,0,0,7.134,93.56,424.3354332,3.937008,6,P-GPS,
15500,5/2/2019 19:56,-3.251761613,-72.90723671,3.937008,424.3354332,2.5501116,43.45603814,19,5,17.184,424.6635172,4.265092,14.5624794,43.45603814,2.460634,-0.671082,0,342.6,-6.9,-1.2,0,0,1183,1024,1024,1024,346.5,0,100,4.311,4.296,4.285,4.287,0,0,7.134,93.56,424.3354332,3.937008,6,P-GPS,
15600,5/2/2019 19:56,-3.251760546,-72.90723706,3.937008,424.3354332,2.5501116,43.85137936,19,5,17.184,424.6635172,4.265092,14.5624794,43.85137936,2.460634,-0.671082,0,342.4,6.6,-1.4,0,0,1684,1024,1024,1024,346.5,0,100,4.311,4.296,4.285,4.287,0,0,7.134,93.56,424.3354332,3.937008,6,P-GPS,
15700,5/2/2019 19:56,-3.251759935,-72.90723757,4.265092,424.6635172,2.3264176,44.08497516,19,5,17.184,424.6635172,4.265092,14.5624794,44.08497516,2.23694,-0.671082,0,342.3,11.4,-1.6,0,0,1684,1024,1024,1024,346.5,0,100,4.311,4.296,4.285,4.287,0,0,7.134,93.56,424.6635172,4.265092,6,P-GPS,
15800,5/2/2019 19:56,-3.251759092,-72.90723788,4.265092,424.6635172,1.901399,44.39895155,19,5,17.184,424.6635172,4.265092,14.5624794,44.39895155,1.789552,-0.671082,0,342.6,1.1,-1.2,0,0,1676,1024,1024,1024,346.5,0,100,4.311,4.296,4.285,4.287,0,0,7.134,93.56,424.6635172,4.265092,6,P-GPS,
15900,5/2/2019 19:56,-3.251758097,-72.90723796,3.937008,424.3354332,1.901399,44.76312479,19,5,17.184,424.6635172,4.265092,14.5624794,44.76312479,2.013246,-0.671082,0,342.9,-14.4,-1.2,0,0,1024,1024,1024,1024,346.5,0,100,4.311,4.296,4.285,4.287,0,0,7.134,93.56,424.3354332,3.937008,6,P-GPS,
16000,5/2/2019 19:56,-3.251757081,-72.90723829,3.937008,424.3354332,2.8185444,45.14074948,19,5,17.184,424.6635172,4.265092,14.5624794,45.14074948,2.684328,-0.894776,0,342.9,-17.4,-1.3,0,0,1024,1024,1024,1024,346.5,0,100,4.311,4.296,4.285,4.287,0,0,7.134,93.56,424.3354332,3.937008,6,P-GPS,
16100,5/2/2019 19:56,-3.251755817,-72.90723864,3.937008,424.3354332,3.467257,45.60925343,19,5,17.184,424.6635172,4.265092,14.5624794,45.60925343,3.35541,-0.894776,0,342.6,-4.2,-1.2,0,0,1684,1024,1024,1024,346.5,0,100,4.311,4.296,4.285,4.287,0,0,7.134,93.56,424.3354332,3.937008,6,P-GPS,
16200,5/2/2019 19:56,-3.251754448,-72.90723907,3.937008,424.3354332,3.467257,46.11811171,19,5,17.184,424.6635172,4.265092,14.5624794,46.11811171,3.35541,-0.894776,0,342.4,9.6,-1.4,0,0,1684,1024,1024,1024,346.5,0,100,4.311,4.296,4.285,4.287,0,0,7.134,93.56,424.3354332,3.937008,6,P-GPS,
16300,5/2/2019 19:56,-3.251753201,-72.90723978,4.265092,424.6635172,3.0422384,46.59022459,19,5,17.165,424.6635172,4.265092,14.5624794,46.59022459,2.908022,-0.894776,0,342.5,7.1,-1.3,0,0,1257,1024,1024,1024,346.5,0,100,4.288,4.288,4.293,4.296,0,0,7.71,93.56,424.6635172,4.265092,6,P-GPS,
16400,5/2/2019 19:56,-3.251752054,-72.90724016,4.265092,424.6635172,2.8185444,47.01804612,19,5,17.165,424.6635172,4.265092,14.5624794,47.01804612,2.684328,-0.894776,0,342.8,-8.3,-1.5,0,0,1257,1024,1024,1024,346.5,0,100,4.288,4.288,4.293,4.296,0,0,7.71,93.56,424.6635172,4.265092,6,P-GPS,
16500,5/2/2019 19:56,-3.251750712,-72.90724035,4.265092,424.6635172,3.2659324,47.51181254,19,5,17.165,424.6635172,4.265092,14.5624794,47.51181254,3.131716,-0.894776,0,342.9,-13.7,-1.2,0,0,1024,1024,1024,1024,346.5,0,100,4.288,4.288,4.293,4.296,0,0,7.71,93.56,424.6635172,4.265092,6,P-GPS,
16600,5/2/2019 19:56,-3.251749255,-72.9072408,3.937008,424.3354332,3.7580592,48.05446348,19,5,17.165,424.6635172,4.265092,14.5624794,48.05446348,3.579104,-1.11847,0,342.8,-4.3,-1.3,0,0,1024,1024,1024,1024,346.5,0,100,4.288,4.288,4.293,4.296,0,0,7.71,93.56,424.3354332,3.937008,6,P-GPS,
16700,5/2/2019 19:56,-3.251747584,-72.90724129,3.937008,424.3354332,3.9593838,48.67683883,19,5,17.165,424.6635172,4.265092,14.5624794,48.67683883,3.802798,-1.11847,0,342.5,10,-1.6,0,0,1024,1024,1024,1024,346.5,0,100,4.288,4.288,4.293,4.296,0,0,7.71,93.56,424.3354332,3.937008,6,P-GPS,
16800,5/2/2019 19:56,-3.251746173,-72.90724172,4.265092,424.6635172,3.2659324,49.20275748,19,5,17.165,424.6635172,4.265092,14.5624794,49.20275748,3.131716,-0.894776,0,342.5,16.4,-1.5,0,0,1024,1024,1024,1024,346.5,0,100,4.288,4.288,4.293,4.296,0,0,7.71,93.56,424.6635172,4.265092,6,P-GPS,
16900,5/2/2019 19:56,-3.251745211,-72.9072422,4.265092,424.6635172,2.5501116,49.5672588,19,5,17.165,424.6635172,4.265092,14.5624794,49.5672588,2.460634,-0.671082,0,342.4,16.8,-1.4,0,0,1024,1024,1024,1024,346.5,0,100,4.288,4.288,4.293,4.296,0,0,7.71,93.56,424.6635172,4.265092,6,P-GPS,
17000,5/2/2019 19:56,-3.251744301,-72.90724249,4.265092,424.6635172,1.8342908,49.90748191,19,5,17.165,424.6635172,4.265092,14.5624794,49.90748191,1.789552,-0.447388,0,342.4,14.3,-1.4,0,0,1024,1024,1024,1024,346.5,0,100,4.288,4.288,4.293,4.296,0,0,7.71,93.56,424.6635172,4.265092,6,P-GPS,
17100,5/2/2019 19:56,-3.251743443,-72.90724282,3.937008,424.3354332,1.4092722,50.22998848,19,5,17.165,424.6635172,4.265092,14.5624794,50.22998848,1.342164,-0.447388,0,342.5,11.3,-1.6,0,0,1024,1024,1024,1024,346.5,0,100,4.288,4.288,4.293,4.296,0,0,7.71,93.56,424.3354332,3.937008,6,P-GPS,
17200,5/2/2019 19:56,-3.251742904,-72.907243,3.937008,424.3354332,1.1408394,50.43208823,19,5,17.165,424.6635172,4.265092,14.5624794,50.43208823,1.11847,-0.223694,0,342.5,9.1,-1.8,0,0,1024,1024,1024,1024,346.5,0,100,4.288,4.288,4.293,4.296,0,0,7.71,93.56,424.3354332,3.937008,6,P-GPS,
17300,5/2/2019 19:56,-3.251742154,-72.9072431,3.937008,424.3354332,0.9171454,50.70767879,19,5,17.16,424.6635172,4.265092,14.5624794,50.70767879,0.894776,-0.223694,0,342.5,7.4,-1.5,0,0,1024,1024,1024,1024,346.5,0,100,4.305,4.29,4.28,4.285,0,0,7.506,93.56,424.3354332,3.937008,6,P-GPS,
17400,5/2/2019 19:56,-3.251741851,-72.90724321,3.937008,424.3354332,0.4921268,50.82119585,19,5,17.16,424.6635172,4.265092,14.5624794,50.82119585,0.447388,-0.223694,0,342.5,6.1,-1.4,0,0,1024,1024,1024,1024,346.5,0,100,4.305,4.29,4.28,4.285,0,0,7.506,93.56,424.3354332,3.937008,6,P-GPS,
17500,5/2/2019 19:56,-3.251741676,-72.90724322,4.265092,424.6635172,0.447388,50.88550032,19,5,17.16,424.6635172,4.265092,14.5624794,50.88550032,0.447388,0,0,342.6,5.1,-1.2,0,0,1024,1024,1024,1024,346.5,0,100,4.305,4.29,4.28,4.285,0,0,7.506,93.56,424.6635172,4.265092,6,P-GPS,
17600,5/2/2019 19:56,-3.251741536,-72.90724327,4.265092,424.6635172,0.223694,50.93766567,19,5,17.16,424.6635172,4.265092,14.5624794,50.93766567,0.223694,0,0,342.6,4.3,-1.1,0,0,1024,1024,1024,1024,346.5,0,100,4.305,4.29,4.28,4.285,0,0,7.506,93.56,424.6635172,4.265092,6,P-GPS,
17700,5/2/2019 19:56,-3.251741283,-72.90724367,4.265092,424.6635172,0,51.04330872,19,5,17.16,424.6635172,4.265092,14.5624794,51.04330872,0,0,0,342.7,3.4,-1,0,0,1024,1024,1024,1024,346.5,0,100,4.305,4.29,4.28,4.285,0,0,7.506,93.56,424.6635172,4.265092,6,P-GPS,
17800,5/2/2019 19:56,-3.251741214,-72.90724372,4.265092,424.6635172,0,51.07053969,19,5,17.16,424.6635172,4.265092,14.5624794,51.07053969,0,0,0,342.7,2.9,-1,0,0,1024,1024,1024,1024,346.5,0,100,4.305,4.29,4.28,4.285,0,0,7.506,93.56,424.6635172,4.265092,6,P-GPS,
17900,5/2/2019 19:56,-3.25174135,-72.90724376,4.265092,424.6635172,0,51.02231134,19,5,17.16,424.6635172,4.265092,14.5624794,51.07053969,0,0,0,342.7,2.6,-1,0,0,1024,1024,1024,1024,346.5,0,100,4.305,4.29,4.28,4.285,0,0,7.506,93.56,424.6635172,4.265092,6,P-GPS,
18000,5/2/2019 19:56,-3.251741339,-72.90724379,4.265092,424.6635172,0,51.0272326,19,5,17.16,424.6635172,4.265092,14.5624794,51.07053969,0,0,0,342.7,2.2,-1.1,0,0,1024,1024,1024,1024,346.5,0,100,4.305,4.29,4.28,4.285,0,0,7.506,93.56,424.6635172,4.265092,6,P-GPS,
18100,5/2/2019 19:56,-3.251741444,-72.90724378,4.265092,424.6635172,0,50.98851869,19,5,17.16,424.6635172,4.265092,14.5624794,51.07053969,0,0,0,342.7,2,-1.5,0,0,1024,1024,1024,1024,346.5,0,100,4.305,4.29,4.28,4.285,0,0,7.506,93.56,424.6635172,4.265092,6,P-GPS,
18200,5/2/2019 19:56,-3.251741466,-72.90724379,4.265092,424.6635172,0,50.98130084,19,5,17.16,424.6635172,4.265092,14.5624794,51.07053969,0,0,0,342.7,1.8,-1.6,0,0,1024,1024,1024,1024,346.5,0,100,4.305,4.29,4.28,4.285,0,0,7.506,93.56,424.6635172,4.265092,6,P-GPS,
18300,5/2/2019 19:56,-3.251741695,-72.9072437,4.265092,424.6635172,0,50.89501475,19,5,17.16,424.6635172,4.265092,14.5624794,51.07053969,0,0,0,342.7,1.5,-1.6,0,0,1024,1024,1024,1024,346.5,0,100,4.305,4.29,4.28,4.285,0,0,7.506,93.56,424.6635172,4.265092,6,P-GPS,
18400,5/2/2019 19:56,-3.251741744,-72.9072437,4.265092,424.6635172,0,50.87729822,19,5,17.17,424.6635172,4.265092,14.5624794,51.07053969,0,0,0,342.6,1.2,-1.5,0,0,1024,1024,1024,1024,346.5,0,100,4.309,4.294,4.282,4.286,0,0,6.967,93.56,424.6635172,4.265092,6,P-GPS,
18500,5/2/2019 19:56,-3.25174185,-72.90724368,4.265092,424.6635172,0,50.83760005,19,5,17.17,424.6635172,4.265092,14.5624794,51.07053969,0,0,0,342.6,1,-1.5,0,0,1024,1024,1024,1024,346.5,0,100,4.309,4.294,4.282,4.286,0,0,6.967,93.56,424.6635172,4.265092,6,P-GPS,
18600,5/2/2019 19:56,-3.251741896,-72.90724367,4.265092,424.6635172,0,50.82086777,19,5,17.17,424.6635172,4.265092,14.5624794,51.07053969,0,0,0,342.5,1.1,-1.9,0,0,1024,1024,1024,1024,346.5,0,100,4.309,4.294,4.282,4.286,0,0,6.967,93.56,424.6635172,4.265092,6,P-GPS,
18700,5/2/2019 19:56,-3.251741936,-72.90724366,4.265092,424.6635172,0,50.80610399,19,5,17.17,424.6635172,4.265092,14.5624794,51.07053969,0,0,0,342.6,1.1,-2,0,0,1024,1024,1024,1024,346.5,0,100,4.309,4.294,4.282,4.286,0,0,6.967,93.56,424.6635172,4.265092,6,P-GPS,
18800,5/2/2019 19:56,-3.251741974,-72.90724366,4.265092,424.6635172,0,50.79199638,19,5,17.17,424.6635172,4.265092,14.5624794,51.07053969,0,0,0,342.6,1.1,-2.2,0,0,1024,1024,1024,1024,346.5,0,100,4.309,4.294,4.282,4.286,0,0,6.967,93.56,424.6635172,4.265092,6,P-GPS,
18900,5/2/2019 19:56,-3.25174216,-72.90724353,4.265092,424.6635172,0,50.72014598,19,5,17.17,424.6635172,4.265092,14.5624794,51.07053969,0,0,0,342.6,1.2,-2.3,0,0,1024,1024,1024,1024,346.5,0,100,4.309,4.294,4.282,4.286,0,0,6.967,93.56,424.6635172,4.265092,6,P-GPS,
19000,5/2/2019 19:56,-3.251742214,-72.90724353,4.265092,424.6635172,0,50.70046094,19,5,17.17,424.6635172,4.265092,14.5624794,51.07053969,0,0,0,342.6,1.3,-2.1,0,0,1024,1024,1024,1024,346.5,0,100,4.309,4.294,4.282,4.286,0,0,6.967,93.56,424.6635172,4.265092,6,P-GPS,
19100,5/2/2019 19:56,-3.251742262,-72.90724359,4.265092,424.6635172,0,50.68504099,19,5,17.17,424.6635172,4.265092,14.5624794,51.07053969,0,0,0,342.6,1.1,-2.1,0,0,1024,1024,1024,1024,346.5,0,100,4.309,4.294,4.282,4.286,0,0,6.967,93.56,424.6635172,4.265092,6,P-GPS,
19200,5/2/2019 19:56,-3.251742321,-72.90724362,4.265092,424.6635172,0,50.66469978,19,5,17.17,424.6635172,4.265092,14.5624794,51.07053969,0,0,0,342.5,0.9,-1.9,0,0,1024,1024,1024,1024,346.5,0,100,4.309,4.294,4.282,4.286,0,0,6.967,93.56,424.6635172,4.265092,6,P-GPS,
19300,5/2/2019 19:56,-3.25174267,-72.9072438,4.265092,424.6635172,0,50.54396487,19,5,17.17,424.6635172,4.265092,14.5624794,51.07053969,0,0,0,342.6,0.8,-1.8,0,0,1024,1024,1024,1024,346.5,0,100,4.309,4.294,4.282,4.286,0,0,6.967,93.56,424.6635172,4.265092,6,P-GPS,
19400,5/2/2019 19:56,-3.251742756,-72.90724385,4.265092,424.6635172,0,50.5147654,19,5,17.166,424.6635172,4.265092,14.5624794,51.07053969,0,0,0,342.6,0.7,-1.5,0,0,1024,1024,1024,1024,346.5,0,100,4.308,4.292,4.281,4.285,0,0,6.958,93.74,424.6635172,4.265092,6,P-GPS,
19500,5/2/2019 19:56,-3.25174304,-72.90724382,4.265092,424.6635172,0,50.41076277,18,5,17.166,424.6635172,4.265092,14.5624794,51.07053969,0,0,0,342.7,0.6,-1.6,0,0,1024,1024,1024,1024,346.5,0,100,4.308,4.292,4.281,4.285,0,0,6.958,93.74,424.6635172,4.265092,6,P-GPS,
19600,5/2/2019 19:56,-3.251743138,-72.90724388,4.265092,424.6635172,0,50.37697012,18,5,17.166,424.6635172,4.265092,14.5624794,51.07053969,0,0,0,342.7,0.5,-1.7,0,0,1024,1024,1024,1024,346.5,0,100,4.308,4.292,4.281,4.285,0,0,6.958,93.74,424.6635172,4.265092,6,P-GPS,
19700,5/2/2019 19:56,-3.251743372,-72.90724397,4.265092,424.6635172,0,50.2952772,19,5,17.166,424.6635172,4.265092,14.5624794,51.07053969,0,0,0,342.7,0.5,-1.8,0,0,1024,1024,1024,1024,346.5,0,100,4.308,4.292,4.281,4.285,0,0,6.958,93.74,424.6635172,4.265092,6,P-GPS,
19800,5/2/2019 19:56,-3.251743478,-72.90724405,4.265092,424.6635172,0,50.25984413,19,5,17.166,424.6635172,4.265092,14.5624794,51.07053969,0,0,0,342.6,0.5,-1.5,0,0,1024,1024,1024,1024,346.5,0,100,4.308,4.292,4.281,4.285,0,0,6.958,93.74,424.6635172,4.265092,6,P-GPS,
19900,5/2/2019 19:56,-3.251743687,-72.90724411,4.265092,424.6635172,0,50.18635331,19,5,17.166,424.6635172,4.265092,14.5624794,51.07053969,0,0,0,342.7,0.5,-1.1,0,0,1024,1024,1024,1024,346.5,0,100,4.308,4.292,4.281,4.285,0,0,6.958,93.74,424.6635172,4.265092,6,P-GPS,
20000,5/2/2019 19:56,-3.251743791,-72.90724418,4.265092,424.6635172,0,50.15124832,19,5,17.166,424.6635172,4.265092,14.5624794,51.07053969,0,0,0,342.7,0.6,-1.2,0,0,1024,1024,1024,1024,346.5,0,100,4.308,4.292,4.281,4.285,0,0,6.958,93.74,424.6635172,4.265092,6,P-GPS,
20100,5/2/2019 19:56,-3.251743984,-72.9072442,4.265092,424.6635172,0,50.0820226,19,5,17.166,424.6635172,4.265092,14.5624794,51.07053969,0,0,0,342.7,0.7,-1.5,0,0,1024,1024,1024,1024,346.5,0,100,4.308,4.292,4.281,4.285,0,0,6.958,93.74,424.6635172,4.265092,6,P-GPS,
20200,5/2/2019 19:56,-3.251744087,-72.90724428,4.265092,424.6635172,0,50.0472457,19,5,17.166,424.6635172,4.265092,14.5624794,51.07053969,0,0,0,342.6,0.5,-1.7,0,0,1024,1024,1024,1024,346.5,0,100,4.308,4.292,4.281,4.285,0,0,6.958,93.74,424.6635172,4.265092,6,P-GPS,
20300,5/2/2019 19:56,-3.251744426,-72.90724444,4.265092,424.6635172,0,49.93044779,19,5,17.166,424.6635172,4.265092,14.5624794,51.07053969,0,0,0,342.6,0.3,-1.6,0,0,1024,1024,1024,1024,346.5,0,100,4.308,4.292,4.281,4.285,0,0,6.958,93.74,424.6635172,4.265092,6,P-GPS,
20400,5/2/2019 19:56,-3.251744537,-72.90724455,4.265092,424.6635172,0,49.89370238,19,5,17.16,424.6635172,4.265092,14.5624794,51.07053969,0,0,0,342.5,0.4,-1.4,0,0,1024,1024,1024,1024,346.5,0,100,4.306,4.291,4.28,4.283,0,0,7.07,93.92,424.6635172,4.265092,6,P-GPS,
20500,5/2/2019 19:56,-3.251744709,-72.90724472,4.265092,424.6635172,0,49.83825619,19,5,17.16,424.6635172,4.265092,14.5624794,51.07053969,0,0,0,342.5,0.8,-1.1,0,0,1024,1024,1024,1024,346.5,0,100,4.306,4.291,4.28,4.283,0,0,7.07,93.92,424.6635172,4.265092,6,P-GPS,
20600,5/2/2019 19:56,-3.251744814,-72.90724484,4.265092,424.6635172,0,49.80479162,19,5,17.16,424.6635172,4.265092,14.5624794,51.07053969,0,0,0,342.6,0.8,-0.9,0,0,1024,1024,1024,1024,346.5,0,100,4.306,4.291,4.28,4.283,0,0,7.07,93.92,424.6635172,4.265092,6,P-GPS,
20700,5/2/2019 19:56,-3.251744992,-72.90724495,4.265092,424.6635172,0,49.74475225,19,5,17.16,424.6635172,4.265092,14.5624794,51.07053969,0,0,0,342.6,0.9,-1,0,0,1024,1024,1024,1024,346.5,0,100,4.306,4.291,4.28,4.283,0,0,7.07,93.92,424.6635172,4.265092,6,P-GPS,
20800,5/2/2019 19:56,-3.251745097,-72.90724506,4.265092,424.6635172,0,49.7109596,19,5,17.16,424.6635172,4.265092,14.5624794,51.07053969,0,0,0,342.6,0.8,-1.4,0,0,1024,1024,1024,1024,346.5,0,100,4.306,4.291,4.28,4.283,0,0,7.07,93.92,424.6635172,4.265092,6,P-GPS,
20900,5/2/2019 19:56,-3.25174515,-72.90724514,4.265092,424.6635172,0,49.69422731,19,5,17.16,424.6635172,4.265092,14.5624794,51.07053969,0,0,0,342.5,0.8,-1.5,0,0,1024,1024,1024,1024,346.5,0,100,4.306,4.291,4.28,4.283,0,0,7.07,93.92,424.6635172,4.265092,6,P-GPS,
21000,5/2/2019 19:56,-3.251745251,-72.90724525,4.265092,424.6635172,0,49.66273125,19,5,17.16,424.6635172,4.265092,14.5624794,51.07053969,0,0,0,342.5,0.9,-1.5,0,0,1024,1024,1024,1024,346.5,0,100,4.306,4.291,4.28,4.283,0,0,7.07,93.92,424.6635172,4.265092,6,P-GPS,
21100,5/2/2019 19:56,-3.25174549,-72.90724534,4.265092,424.6635172,0,49.57939791,19,5,17.16,424.6635172,4.265092,14.5624794,51.07053969,0,0,0,342.5,0.8,-1.2,0,0,1024,1024,1024,1024,346.5,0,100,4.306,4.291,4.28,4.283,0,0,7.07,93.92,424.6635172,4.265092,6,P-GPS,
21200,5/2/2019 19:56,-3.251745607,-72.90724546,4.265092,424.6635172,0,49.54134017,19,5,17.16,424.6635172,4.265092,14.5624794,51.07053969,0,0,0,342.5,0.7,-1,0,0,1024,1024,1024,1024,346.5,0,100,4.306,4.291,4.28,4.283,0,0,7.07,93.92,424.6635172,4.265092,6,P-GPS,
21300,5/2/2019 19:56,-3.251745686,-72.90724569,4.265092,424.6635172,0,49.52263938,19,5,17.16,424.6635172,4.265092,14.5624794,51.07053969,0,0,0,342.5,0.7,-1,0,0,1024,1024,1024,1024,346.5,0,100,4.306,4.291,4.28,4.283,0,0,7.07,93.92,424.6635172,4.265092,6,P-GPS,
21400,5/2/2019 19:56,-3.251745796,-72.90724581,4.265092,424.6635172,0,49.48786248,19,5,17.16,424.6635172,4.265092,14.5624794,51.07053969,0,0,0,342.6,0.6,-0.9,0,0,1024,1024,1024,1024,346.5,0,100,4.306,4.291,4.28,4.283,0,0,7.07,93.92,424.6635172,4.265092,6,P-GPS,
21500,5/2/2019 19:56,-3.251745715,-72.90724585,4.265092,424.6635172,0,49.51870237,19,5,17.157,424.6635172,4.265092,14.5624794,51.07053969,0,0,0,342.5,0.4,-1,0,0,1024,1024,1024,1024,346.5,0,100,4.307,4.29,4.279,4.283,0,0,7.052,93.92,424.6635172,4.265092,6,P-GPS,
21600,5/2/2019 19:56,-3.251745798,-72.90724595,4.265092,424.6635172,0,49.49311182,19,5,17.157,424.6635172,4.265092,14.5624794,51.07053969,0,0,0,342.6,0.2,-1.1,0,0,1024,1024,1024,1024,346.5,0,100,4.307,4.29,4.279,4.283,0,0,7.052,93.92,424.6635172,4.265092,6,P-GPS,
21700,5/2/2019 19:56,-3.251745737,-72.90724616,4.265092,424.6635172,0,49.52395172,19,5,17.157,424.6635172,4.265092,14.5624794,51.07053969,0,0,0,342.6,0.4,-1,0,0,1024,1024,1024,1024,346.5,0,100,4.307,4.29,4.279,4.283,0,0,7.052,93.92,424.6635172,4.265092,6,P-GPS,
21800,5/2/2019 19:56,-3.251745793,-72.90724627,4.265092,424.6635172,0,49.50853177,19,5,17.157,424.6635172,4.265092,14.5624794,51.07053969,0,0,0,342.7,0.3,-1,0,0,1024,1024,1024,1024,346.5,0,100,4.307,4.29,4.279,4.283,0,0,7.052,93.92,424.6635172,4.265092,6,P-GPS,
