time(millisecond),datetime(utc),latitude,longitude,height_above_takeoff(feet),altitude_above_seaLevel(feet),speed(mph),distance(feet),satellites,gpslevel,voltage(v),max_altitude(feet),max_ascent(feet),max_speed(mph),max_distance(feet), xSpeed(mph), ySpeed(mph), zSpeed(mph), compass_heading(degrees), pitch(degrees), roll(degrees),isPhoto,isVideo,rc_elevator,rc_aileron,rc_throttle,rc_rudder,gimbal_heading(degrees),gimbal_pitch(degrees),battery_percent,voltageCell1,voltageCell2,voltageCell3,voltageCell4,voltageCell5,voltageCell6,current(A),battery_temperature(f),altitude(feet),ascent(feet),flycStateRaw,flycState,message
0,5/3/2019 20:31,-3.251885856,-72.90723194,0,420.3638825,0,0,19,5,0,420.3638825,0,0,0,0,0,0,356.1,3.9,-0.7,0,0,1024,1024,1024,1024,356.3,0,100,4.347,4.341,4.329,4.331,0,0,0,88.88,420.3638825,0,41,Motors_Started,
100,5/3/2019 20:31,-3.251885885,-72.907232,0,420.3638825,0,0.024560598,19,5,0,420.3638825,0,0,0.024560598,0,0,0,356.1,3.9,-0.7,0,0,1024,1024,1024,1024,356.3,0,100,4.347,4.341,4.329,4.331,0,0,0,88.88,420.3638825,0,41,Motors_Started,
200,5/3/2019 20:31,-3.25188598,-72.90723203,0,420.3638825,0,0.055794293,20,5,0,420.3638825,0,0,0.055794293,0,0,0,356.1,3.9,-0.7,0,0,1024,1024,1024,1024,356.3,0,100,4.347,4.341,4.329,4.331,0,0,0,88.88,420.3638825,0,41,Motors_Started,
300,5/3/2019 20:31,-3.251886016,-72.90723209,0,420.3638825,0,0.079747706,20,5,0,420.3638825,0,0,0.079747706,0,0,0,356.1,3.9,-0.7,0,0,1024,1024,1024,1024,356.3,0,100,4.347,4.341,4.329,4.331,0,0,0,88.88,420.3638825,0,41,Motors_Started,
400,5/3/2019 20:31,-3.251885943,-72.90723212,0,420.3638825,0,0.072291997,20,5,0,420.3638825,0,0,0.079747706,0,0,0,356.1,3.9,-0.7,0,0,1024,1024,1024,1024,356.3,0,100,4.347,4.341,4.329,4.331,0,0,0,88.88,420.3638825,0,41,Motors_Started,Setting new Return-To-Home altitude to 30m (98 ft). Data Recorder File Index is 26. Setting new Maximum Flight Altitude to 300m (984 ft)
500,5/3/2019 20:31,-3.251885972,-72.90723216,0,420.3638825,0,0.092482615,20,5,0,420.3638825,0,0,0.092482615,0,0,0,356.1,3.9,-0.7,0,0,1024,1024,1024,1024,356.3,0,100,4.347,4.341,4.329,4.331,0,0,0,88.88,420.3638825,0,41,Motors_Started,
600,5/3/2019 20:31,-3.251886073,-72.9072322,0,420.3638825,0,0.123997051,20,5,0,420.3638825,0,0,0.123997051,0,0,0,356.1,3.9,-0.7,0,0,1024,1024,1024,1024,356.3,0,100,4.347,4.341,4.329,4.331,0,0,0,88.88,420.3638825,0,41,Motors_Started,
700,5/3/2019 20:31,-3.251886107,-72.90723225,0,420.3638825,0,0.147010175,20,5,0,420.3638825,0,0,0.147010175,0,0,0,356.2,3.9,-0.7,0,0,1024,1024,1024,1024,356.3,0,100,4.347,4.341,4.329,4.331,0,0,0,88.88,420.3638825,0,41,Motors_Started,
800,5/3/2019 20:31,-3.251886039,-72.9072323,0,420.3638825,0,0.147593837,20,5,0,420.3638825,0,0,0.147593837,0,0,0,356.2,3.9,-0.7,0,0,1024,1024,1024,1024,356.3,0,100,4.347,4.341,4.329,4.331,0,0,0,88.88,420.3638825,0,41,Motors_Started,
900,5/3/2019 20:31,-3.251886063,-72.90723235,0,420.3638825,0,0.168468837,20,5,0,420.3638825,0,0,0.168468837,0,0,0,356.2,3.9,-0.7,0,0,1024,1024,1024,1024,356.2,0,100,4.347,4.341,4.329,4.331,0,0,0,88.88,420.3638825,0,41,Motors_Started,
1000,5/3/2019 20:31,-3.251886011,-72.90723225,0,420.3638825,0,0.126828744,20,5,0,420.3638825,0,0,0.168468837,0,0,0,356.2,3.9,-0.7,0,0,1024,1024,1024,1024,356.3,0,100,4.347,4.341,4.329,4.331,0,0,0,88.88,420.3638825,0,41,Motors_Started,
1100,5/3/2019 20:31,-3.251886029,-72.90723229,0,420.3638825,0,0.143058075,20,5,0,420.3638825,0,0,0.168468837,0,0,0,356.1,3.9,-0.7,0,0,1024,1024,1024,1024,356.3,0,100,4.347,4.341,4.329,4.331,0,0,0,88.88,420.3638825,0,41,Motors_Started,
1200,5/3/2019 20:31,-3.251886138,-72.90723236,0,420.3638825,0,0.185259192,20,5,0,420.3638825,0,0,0.185259192,0,0,0,356.1,3.8,-0.7,0,0,1024,1024,1024,1024,356.3,0,100,4.347,4.341,4.329,4.331,0,0,0,88.88,420.3638825,0,11,AutoTakeoff,
1300,5/3/2019 20:31,-3.251886163,-72.9072324,0,420.3638825,0,0.202492789,20,5,0,420.3638825,0,0,0.202492789,0,0,0,356.1,3.9,-0.8,0,0,1024,1024,1024,1024,356.3,0,100,4.347,4.341,4.329,4.331,0,0,0,88.88,420.3638825,0,11,AutoTakeoff,
1400,5/3/2019 20:31,-3.251886113,-72.90723247,0,420.3638825,0,0.216253944,21,5,0,420.3638825,0,0,0.216253944,0,0,0,356.1,3.9,-0.8,0,0,1024,1024,1024,1024,356.3,0,100,4.347,4.341,4.329,4.331,0,0,0,88.88,420.3638825,0,11,AutoTakeoff,
1500,5/3/2019 20:31,-3.25188613,-72.90723252,0,420.3638825,0,0.233399286,21,5,0,420.3638825,0,0,0.233399286,0,0,0,356.1,3.9,-0.7,0,0,1024,1024,1024,1024,356.3,0,100,4.347,4.341,4.329,4.331,0,0,0,88.88,420.3638825,0,11,AutoTakeoff,
1600,5/3/2019 20:31,-3.251886087,-72.90723257,0,420.3638825,0,0.245914706,21,5,0,420.3638825,0,0,0.245914706,0,0,0,356.2,3.8,-0.8,0,0,1024,1024,1024,1024,356.3,0,100,4.347,4.341,4.329,4.331,0,0,0,88.88,420.3638825,0,11,AutoTakeoff,
1700,5/3/2019 20:31,-3.251886097,-72.90723262,0,420.3638825,0,0.262584326,21,5,0,420.3638825,0,0,0.262584326,0,0,0,356.3,3.7,-0.8,0,0,1024,1024,1024,1024,356.3,0,100,4.347,4.341,4.329,4.331,0,0,0,88.88,420.3638825,0,11,AutoTakeoff,
1800,5/3/2019 20:31,-3.251886228,-72.90723253,0,420.3638825,0,0.254931111,21,5,17.347,420.3638825,0,0,0.262584326,0,0,0,356.6,1.9,-0.8,0,0,1024,1024,1024,1024,356.3,0,100,4.347,4.341,4.329,4.331,0,0,4.148,88.88,420.3638825,0,11,AutoTakeoff,
1900,5/3/2019 20:31,-3.251886258,-72.90723257,0,420.3638825,0,0.273784458,21,5,17.347,420.3638825,0,0,0.273784458,0,0,0,356.7,-2.4,-0.5,0,0,1024,1024,1024,1024,356.3,0,100,4.347,4.341,4.329,4.331,0,0,4.148,88.88,420.3638825,0,11,AutoTakeoff,
2000,5/3/2019 20:31,-3.251886208,-72.90723268,0,420.3638825,0,0.297869104,21,5,17.347,420.3638825,0,0,0.297869104,0,0,-0.223694,357.2,-4.4,0.3,0,0,1024,1024,1024,1024,356.3,0,100,4.347,4.341,4.329,4.331,0,0,4.148,88.88,420.3638825,0,11,AutoTakeoff,
2100,5/3/2019 20:31,-3.251886152,-72.90723272,0,420.3638825,0.223694,0.305436033,21,5,17.347,420.3638825,0,0.223694,0.305436033,0.223694,0,-0.671082,357.3,-2.2,0.3,0,0,1024,1024,1024,1024,356.3,0,100,4.347,4.341,4.329,4.331,0,0,4.148,88.88,420.3638825,0,11,AutoTakeoff,
2200,5/3/2019 20:31,-3.251886153,-72.90723279,0,420.3638825,0.223694,0.329448829,21,5,17.347,420.3638825,0,0.223694,0.329448829,0.223694,0,-0.894776,357.2,0.2,0.3,0,0,1024,1024,1024,1024,356.3,0,100,4.347,4.341,4.329,4.331,0,0,4.148,88.88,420.3638825,0,11,AutoTakeoff,
2300,5/3/2019 20:31,-3.251886071,-72.90723282,0.328084,420.6919665,0.223694,0.330610247,21,5,17.347,420.6919665,0.328084,0.223694,0.330610247,0.223694,0,-0.894776,357.1,1.5,0.2,0,0,1024,1024,1024,1024,356.3,0,100,4.347,4.341,4.329,4.331,0,0,4.148,88.88,420.6919665,0.328084,11,AutoTakeoff,
2400,5/3/2019 20:31,-3.251885986,-72.90723299,0.328084,420.6919665,0,0.384251981,21,5,17.347,420.6919665,0.328084,0.223694,0.384251981,0,0,-0.894776,357.1,1.6,0,0,0,1024,1024,1024,1024,356.3,0,100,4.347,4.341,4.329,4.331,0,0,4.148,88.88,420.6919665,0.328084,11,AutoTakeoff,
2500,5/3/2019 20:31,-3.251885941,-72.907233,0.656168,421.0200505,0,0.386797913,21,5,17.347,421.0200505,0.656168,0.223694,0.386797913,0,0,-0.671082,357.1,1.4,-0.1,0,0,1024,1024,1024,1024,356.3,0,100,4.347,4.341,4.329,4.331,0,0,4.148,88.88,421.0200505,0.656168,11,AutoTakeoff,Home Point Recorded. RTH Altitude:  30m.
2600,5/3/2019 20:31,-3.251885988,-72.90723283,0.656168,421.0200505,0,0.327669958,21,5,17.347,421.0200505,0.656168,0.223694,0.386797913,0,0,-0.671082,357.2,1.1,-0.6,0,0,1024,1024,1024,1024,356.3,0,100,4.347,4.341,4.329,4.331,0,0,4.148,88.88,421.0200505,0.656168,11,AutoTakeoff,
2700,5/3/2019 20:31,-3.251885991,-72.9072328,0.656168,421.0200505,0,0.319157819,21,5,17.347,421.0200505,0.656168,0.223694,0.386797913,0,0,-0.671082,357.1,0.7,-1.1,0,0,1024,1024,1024,1024,356.3,0,100,4.347,4.341,4.329,4.331,0,0,4.148,88.88,421.0200505,0.656168,11,AutoTakeoff,
2800,5/3/2019 20:31,-3.251885902,-72.90723274,0.984252,421.3481345,0,0.290606965,21,5,17.347,421.3481345,0.984252,0.223694,0.386797913,0,0,-0.894776,357.1,0.3,-1.4,0,0,1024,1024,1024,1024,356.3,0,100,4.347,4.341,4.329,4.331,0,0,4.148,88.88,421.3481345,0.984252,11,AutoTakeoff,
2900,5/3/2019 20:31,-3.251885921,-72.90723272,0.984252,421.3481345,0,0.285170941,21,5,17.347,421.3481345,0.984252,0.223694,0.386797913,0,0,-0.894776,357.1,0,-1.3,0,0,1024,1024,1024,1024,356.3,0,100,4.347,4.341,4.329,4.331,0,0,4.148,88.88,421.3481345,0.984252,11,AutoTakeoff,
3000,5/3/2019 20:31,-3.251885881,-72.90723306,1.312336,421.6762185,0,0.410062349,21,5,17.347,421.6762185,1.312336,0.223694,0.410062349,0,0,-0.894776,357.1,0,-1.1,0,0,1024,1024,1024,1024,356.3,0,100,4.347,4.341,4.329,4.331,0,0,4.148,88.88,421.6762185,1.312336,11,AutoTakeoff,
3100,5/3/2019 20:31,-3.251885902,-72.90723309,1.312336,421.6762185,0,0.420761168,21,5,17.347,421.6762185,1.312336,0.223694,0.420761168,0,0,-0.894776,357,-0.1,-1,0,0,1024,1024,1024,1024,356.3,0,100,4.347,4.341,4.329,4.331,0,0,4.148,88.88,421.6762185,1.312336,11,AutoTakeoff,
3200,5/3/2019 20:31,-3.251885925,-72.90723296,1.64042,422.0043025,0,0.374412742,20,5,17.347,422.0043025,1.64042,0.223694,0.420761168,0,0,-1.11847,357.1,-0.2,-1.1,0,0,1024,1024,1024,1024,356.4,0,100,4.347,4.341,4.329,4.331,0,0,4.148,88.88,422.0043025,1.64042,11,AutoTakeoff,
3300,5/3/2019 20:31,-3.251885948,-72.90723299,1.64042,422.0043025,0,0.384737545,20,5,17.347,422.0043025,1.64042,0.223694,0.420761168,0,0,-1.11847,357.2,-0.3,-1.1,0,0,1024,1024,1024,1024,356.4,0,100,4.347,4.341,4.329,4.331,0,0,4.148,88.88,422.0043025,1.64042,11,AutoTakeoff,
3400,5/3/2019 20:31,-3.25188561,-72.9072327,1.968504,422.3323865,0,0.289878946,20,5,17.347,422.3323865,1.968504,0.223694,0.420761168,0,0,-1.11847,357.1,-0.3,-1.1,0,0,1024,1024,1024,1024,356.4,0,100,4.347,4.341,4.329,4.331,0,0,4.148,88.88,422.3323865,1.968504,11,AutoTakeoff,
3500,5/3/2019 20:31,-3.251885593,-72.90723271,1.968504,422.3323865,0,0.295659458,20,5,17.347,422.3323865,1.968504,0.223694,0.420761168,0,0,-1.11847,357.1,-0.2,-0.9,0,0,1024,1024,1024,1024,356.4,0,100,4.347,4.341,4.329,4.331,0,0,4.148,88.88,422.3323865,1.968504,11,AutoTakeoff,
3600,5/3/2019 20:31,-3.251885594,-72.90723259,2.296588,422.6604705,0,0.256286097,21,5,17.347,422.6604705,2.296588,0.223694,0.420761168,0,0,-1.11847,357.1,-0.1,-0.7,0,0,1024,1024,1024,1024,356.4,0,100,4.347,4.341,4.329,4.331,0,0,4.148,88.88,422.6604705,2.296588,11,AutoTakeoff,
3700,5/3/2019 20:31,-3.251885575,-72.9072326,2.296588,422.6604705,0,0.26083367,21,5,17.347,422.6604705,2.296588,0.223694,0.420761168,0,0,-0.894776,357.1,0,-0.7,0,0,1024,1024,1024,1024,356.4,0,100,4.347,4.341,4.329,4.331,0,0,4.148,88.88,422.6604705,2.296588,11,AutoTakeoff,
3800,5/3/2019 20:31,-3.251885437,-72.90723278,2.624672,422.9885545,0,0.341473108,20,5,17.347,422.9885545,2.624672,0.223694,0.420761168,0,0,-0.894776,357.2,0,-0.6,0,0,1024,1024,1024,1024,356.4,0,100,4.347,4.341,4.329,4.331,0,0,4.148,88.88,422.9885545,2.624672,11,AutoTakeoff,
3900,5/3/2019 20:31,-3.251885408,-72.9072328,2.624672,422.9885545,0,0.352687019,20,5,17.199,422.9885545,2.624672,0.223694,0.420761168,0,0,-0.894776,357.1,-0.1,-0.5,0,0,1024,1024,1024,1024,356.4,0,100,4.313,4.298,4.29,4.293,0,0,7.008,88.88,422.9885545,2.624672,11,AutoTakeoff,
4000,5/3/2019 20:31,-3.251885765,-72.90723292,2.952756,423.3166385,0,0.358316941,21,5,17.199,423.3166385,2.952756,0.223694,0.420761168,0,0,-0.894776,357.2,-0.2,-0.6,0,0,1024,1024,1024,1024,356.4,0,100,4.313,4.298,4.29,4.293,0,0,7.008,88.88,423.3166385,2.952756,11,AutoTakeoff,
4100,5/3/2019 20:31,-3.25188577,-72.90723294,2.952756,423.3166385,0,0.367398306,21,5,17.199,423.3166385,2.952756,0.223694,0.420761168,0,0,-0.894776,357.1,-0.3,-0.6,0,0,1024,1024,1024,1024,356.4,0,100,4.313,4.298,4.29,4.293,0,0,7.008,88.88,423.3166385,2.952756,11,AutoTakeoff,
4200,5/3/2019 20:31,-3.251885463,-72.90723288,3.28084,423.6447225,0,0.371732295,21,5,17.199,423.6447225,3.28084,0.223694,0.420761168,0,0,-0.894776,357.1,-0.4,-0.6,0,0,1024,1024,1024,1024,356.4,0,100,4.313,4.298,4.29,4.293,0,0,7.008,88.88,423.6447225,3.28084,11,AutoTakeoff,
4300,5/3/2019 20:31,-3.251885434,-72.9072329,3.28084,423.6447225,0,0.381194238,20,5,17.199,423.6447225,3.28084,0.223694,0.420761168,0,0,-0.894776,357.1,-0.4,-0.5,0,0,1024,1024,1024,1024,356.4,0,100,4.313,4.298,4.29,4.293,0,0,7.008,88.88,423.6447225,3.28084,11,AutoTakeoff,
4400,5/3/2019 20:31,-3.251885004,-72.907233,3.608924,423.9728065,0,0.496555134,20,5,17.199,423.9728065,3.608924,0.223694,0.496555134,0,0,-0.894776,357,-0.5,-0.6,0,0,1024,1024,1024,1024,356.4,0,100,4.313,4.298,4.29,4.293,0,0,7.008,88.88,423.9728065,3.608924,6,P-GPS,
4500,5/3/2019 20:31,-3.251884929,-72.90723302,3.608924,423.9728065,0,0.520124689,20,5,17.199,423.9728065,3.608924,0.223694,0.520124689,0,0,-0.671082,357.1,-0.4,-0.6,0,0,1024,1024,1024,1024,356.4,0,100,4.313,4.298,4.29,4.293,0,0,7.008,88.88,423.9728065,3.608924,6,P-GPS,
4600,5/3/2019 20:31,-3.251885018,-72.90723282,3.608924,423.9728065,0,0.442818256,19,5,17.199,423.9728065,3.608924,0.223694,0.520124689,0,0,-0.223694,357.1,-0.3,-0.5,0,0,1024,1024,1024,1024,356.4,0,100,4.313,4.298,4.29,4.293,0,0,7.008,88.88,423.9728065,3.608924,6,P-GPS,
4700,5/3/2019 20:31,-3.25188495,-72.90723282,3.608924,423.9728065,0,0.459662088,19,5,17.199,423.9728065,3.608924,0.223694,0.520124689,0,0,-0.223694,357.1,-0.2,-0.5,0,0,1024,1024,1024,1024,356.4,0,100,4.313,4.298,4.29,4.293,0,0,7.008,88.88,423.9728065,3.608924,6,P-GPS,
4800,5/3/2019 20:31,-3.251885053,-72.90723295,3.608924,423.9728065,0,0.469858939,19,5,17.199,423.9728065,3.608924,0.223694,0.520124689,0,0,0,357,-0.3,-0.6,0,0,1024,1024,1024,1024,356.4,0,100,4.313,4.298,4.29,4.293,0,0,7.008,88.88,423.9728065,3.608924,6,P-GPS,
4900,5/3/2019 20:31,-3.251884997,-72.90723295,3.608924,423.9728065,0,0.484022325,19,5,17.204,423.9728065,3.608924,0.223694,0.520124689,0,0,0,357.1,-0.4,-0.5,0,0,1024,1024,1024,1024,356.4,0,100,4.316,4.302,4.292,4.294,0,0,6.49,88.88,423.9728065,3.608924,6,P-GPS,
5000,5/3/2019 20:31,-3.251885091,-72.90723261,3.608924,423.9728065,0,0.371210642,19,5,17.204,423.9728065,3.608924,0.223694,0.520124689,0,0,0,357.1,-0.4,-0.4,0,0,1024,1024,1024,1024,356.4,0,100,4.316,4.302,4.292,4.294,0,0,6.49,88.88,423.9728065,3.608924,6,P-GPS,
5100,5/3/2019 20:31,-3.251885045,-72.90723258,3.608924,423.9728065,0,0.375836626,19,5,17.204,423.9728065,3.608924,0.223694,0.520124689,0,0,0,357.1,-0.4,-0.5,0,0,1024,1024,1024,1024,356.4,0,100,4.316,4.302,4.292,4.294,0,0,6.49,88.88,423.9728065,3.608924,6,P-GPS,
5200,5/3/2019 20:31,-3.251885281,-72.90723244,3.608924,423.9728065,0,0.278846138,19,5,17.204,423.9728065,3.608924,0.223694,0.520124689,0,0,0,357.1,-0.5,-0.6,0,0,1024,1024,1024,1024,356.4,0,100,4.316,4.302,4.292,4.294,0,0,6.49,88.88,423.9728065,3.608924,6,P-GPS,
5300,5/3/2019 20:31,-3.251885258,-72.90723239,3.608924,423.9728065,0,0.272986229,18,5,17.204,423.9728065,3.608924,0.223694,0.520124689,0,0,0,357.2,-0.4,-0.8,0,0,1024,1024,1024,1024,356.4,0,100,4.316,4.302,4.292,4.294,0,0,6.49,88.88,423.9728065,3.608924,6,P-GPS,
5400,5/3/2019 20:31,-3.2518853,-72.90723245,3.608924,423.9728065,0,0.274383867,18,5,17.204,423.9728065,3.608924,0.223694,0.520124689,0,0,0,357.2,-0.2,-0.9,0,0,1024,1024,1024,1024,356.4,0,100,4.316,4.302,4.292,4.294,0,0,6.49,88.88,423.9728065,3.608924,6,P-GPS,
5500,5/3/2019 20:31,-3.251885286,-72.9072324,3.608924,423.9728065,0,0.267608932,18,5,17.204,423.9728065,3.608924,0.223694,0.520124689,0,0,0,357.2,-0.1,-1,0,0,1024,1024,1024,1024,356.4,0,100,4.316,4.302,4.292,4.294,0,0,6.49,88.88,423.9728065,3.608924,6,P-GPS,
5600,5/3/2019 20:31,-3.251885174,-72.90723233,3.608924,423.9728065,0,0.285617463,18,5,17.204,423.9728065,3.608924,0.223694,0.520124689,0,0,0,357.2,-0.1,-1.1,0,0,1024,1024,1024,1024,356.4,0,100,4.316,4.302,4.292,4.294,0,0,6.49,88.88,423.9728065,3.608924,6,P-GPS,
5700,5/3/2019 20:31,-3.251885161,-72.90723228,3.608924,423.9728065,0,0.282383211,18,5,17.204,423.9728065,3.608924,0.223694,0.520124689,0,0,0,357.3,-0.1,-1,0,0,1024,1024,1024,1024,356.4,0,100,4.316,4.302,4.292,4.294,0,0,6.49,88.88,423.9728065,3.608924,6,P-GPS,
5800,5/3/2019 20:31,-3.251885075,-72.90723223,3.608924,423.9728065,0,0.30429791,18,5,17.204,423.9728065,3.608924,0.223694,0.520124689,0,0,0,357.3,0,-1,0,0,1024,1024,1024,1024,356.4,0,100,4.316,4.302,4.292,4.294,0,0,6.49,88.88,423.9728065,3.608924,6,P-GPS,
5900,5/3/2019 20:31,-3.251885065,-72.90723219,3.608924,423.9728065,0,0.302878947,18,5,17.18,423.9728065,3.608924,0.223694,0.520124689,0,0,0,357.4,0,-0.8,0,0,829,1024,1024,1024,356.4,0,100,4.31,4.295,4.286,4.289,0,0,6.857,89.06,423.9728065,3.608924,6,P-GPS,
6000,5/3/2019 20:31,-3.251884985,-72.9072323,3.608924,423.9728065,0,0.343704079,18,5,17.18,423.9728065,3.608924,0.223694,0.520124689,0,0,0,357.3,0,-0.8,0,0,1024,1024,1024,1024,356.4,0,100,4.31,4.295,4.286,4.289,0,0,6.857,89.06,423.9728065,3.608924,6,P-GPS,
6100,5/3/2019 20:31,-3.251884976,-72.90723227,3.608924,423.9728065,0,0.342936363,18,5,17.18,423.9728065,3.608924,0.223694,0.520124689,0,0,0,357.3,0.5,-0.6,0,0,1024,1024,1024,1024,356.4,0,100,4.31,4.295,4.286,4.289,0,0,6.857,89.06,423.9728065,3.608924,6,P-GPS,
6200,5/3/2019 20:31,-3.251885046,-72.90723234,3.608924,423.9728065,0,0.329232294,18,5,17.18,423.9728065,3.608924,0.223694,0.520124689,0,0,0,357.2,0,-0.5,0,0,863,1024,1024,1024,356.4,0,100,4.31,4.295,4.286,4.289,0,0,6.857,89.06,423.9728065,3.608924,6,P-GPS,
6300,5/3/2019 20:31,-3.251885061,-72.90723231,3.608924,423.9728065,0,0.320463265,18,5,17.18,423.9728065,3.608924,0.223694,0.520124689,0,0,0,357.3,-0.4,-0.4,0,0,659,1024,1024,1024,356.4,0,100,4.31,4.295,4.286,4.289,0,0,6.857,89.06,423.9728065,3.608924,6,P-GPS,
6400,5/3/2019 20:31,-3.251885101,-72.9072325,3.608924,423.9728065,0,0.342506573,18,5,17.18,423.9728065,3.608924,0.223694,0.520124689,0,0,0,357.3,1.1,-0.5,0,0,1024,1024,1024,1024,356.4,0,100,4.31,4.295,4.286,4.289,0,0,6.857,89.06,423.9728065,3.608924,6,P-GPS,
6500,5/3/2019 20:31,-3.25188514,-72.90723248,3.608924,423.9728065,0,0.328039052,18,5,17.18,423.9728065,3.608924,0.223694,0.520124689,0,0,0,357.3,3.8,-0.6,0,0,1024,1024,1024,1024,356.4,0,100,4.31,4.295,4.286,4.289,0,0,6.857,89.06,423.9728065,3.608924,6,P-GPS,
6600,5/3/2019 20:31,-3.251885365,-72.90723263,3.608924,423.9728065,0,0.30948459,18,5,17.18,423.9728065,3.608924,0.223694,0.520124689,-0.223694,0,0,357.2,0.6,-0.4,0,0,1024,1024,1024,1024,356.4,0,100,4.31,4.295,4.286,4.289,0,0,6.857,89.06,423.9728065,3.608924,6,P-GPS,
6700,5/3/2019 20:31,-3.251885493,-72.90723262,3.608924,423.9728065,0.223694,0.282261164,19,5,17.18,423.9728065,3.608924,0.223694,0.520124689,-0.223694,0,0,357.3,-1,-0.4,0,0,900,1024,1024,1024,356.4,0,100,4.31,4.295,4.286,4.289,0,0,6.857,89.06,423.9728065,3.608924,6,P-GPS,
6800,5/3/2019 20:31,-3.251885523,-72.90723275,3.608924,423.9728065,0.223694,0.320690299,19,5,17.18,423.9728065,3.608924,0.223694,0.520124689,-0.223694,0,0,357.3,-1.6,-0.5,0,0,843,1024,1024,1024,356.4,0,100,4.31,4.295,4.286,4.289,0,0,6.857,89.06,423.9728065,3.608924,6,P-GPS,
6900,5/3/2019 20:31,-3.251885613,-72.90723275,3.608924,423.9728065,0,0.308885837,19,5,17.18,423.9728065,3.608924,0.223694,0.520124689,0,0,0,357.3,1.3,-0.6,0,0,1024,1024,1024,1024,356.4,0,100,4.31,4.295,4.286,4.289,0,0,6.857,89.06,423.9728065,3.608924,6,P-GPS,
7000,5/3/2019 20:31,-3.251885632,-72.90723257,3.608924,423.9728065,0.223694,0.242590887,19,5,17.171,423.9728065,3.608924,0.223694,0.520124689,-0.223694,0,0,357.2,2.4,-0.7,0,0,1024,1024,1024,1024,356.4,0,100,4.308,4.294,4.285,4.284,0,0,6.964,89.06,423.9728065,3.608924,6,P-GPS,
7100,5/3/2019 20:31,-3.251885776,-72.90723254,3.608924,423.9728065,0.223694,0.221115165,19,5,17.171,423.9728065,3.608924,0.223694,0.520124689,-0.223694,0,0,357.3,-0.1,-0.6,0,0,1024,1024,1024,1024,356.4,0,100,4.308,4.294,4.285,4.284,0,0,6.964,89.06,423.9728065,3.608924,6,P-GPS,
7200,5/3/2019 20:31,-3.25188592,-72.9072324,3.608924,423.9728065,0.223694,0.168561029,19,5,17.171,423.9728065,3.608924,0.223694,0.520124689,-0.223694,0,0,357.3,-1.5,-0.8,0,0,1037,1024,1024,1024,356.4,0,100,4.308,4.294,4.285,4.284,0,0,6.964,89.06,423.9728065,3.608924,6,P-GPS,
7300,5/3/2019 20:31,-3.251886054,-72.90723235,3.608924,423.9728065,0.223694,0.167517066,19,5,17.171,423.9728065,3.608924,0.223694,0.520124689,-0.223694,0,0,357.3,-2,-1.1,0,0,1494,1024,1024,1024,356.4,0,100,4.308,4.294,4.285,4.284,0,0,6.964,89.06,423.9728065,3.608924,6,P-GPS,
7400,5/3/2019 20:31,-3.251885989,-72.90723225,3.608924,423.9728065,0.223694,0.122995411,19,5,17.171,423.9728065,3.608924,0.223694,0.520124689,-0.223694,0,0,357.3,-2.4,-1.1,0,0,1150,1024,1024,1024,356.4,0,100,4.308,4.294,4.285,4.284,0,0,6.964,89.06,423.9728065,3.608924,6,P-GPS,
7500,5/3/2019 20:31,-3.251886046,-72.90723221,3.608924,423.9728065,0,0.119872707,19,5,17.171,423.9728065,3.608924,0.223694,0.520124689,0,0,0,357.3,-8.4,-1,0,0,1024,1024,1024,1024,356.4,0,100,4.308,4.294,4.285,4.284,0,0,6.964,89.06,423.9728065,3.608924,6,P-GPS,
7600,5/3/2019 20:31,-3.251885745,-72.90723216,3.608924,423.9728065,0,0.088462929,20,5,17.171,423.9728065,3.608924,0.223694,0.520124689,0,0,0,357.3,-5.7,-1.2,0,0,1024,1024,1024,1024,356.4,0,100,4.308,4.294,4.285,4.284,0,0,6.964,89.06,423.9728065,3.608924,6,P-GPS,
7700,5/3/2019 20:31,-3.251885574,-72.90723212,3.608924,423.9728065,0.223694,0.122926513,20,5,17.171,423.9728065,3.608924,0.223694,0.520124689,0.223694,0,0,357.1,-1.1,-1.1,0,0,1024,1024,1024,1024,356.4,0,100,4.308,4.294,4.285,4.284,0,0,6.964,89.06,423.9728065,3.608924,6,P-GPS,
7800,5/3/2019 20:31,-3.251885444,-72.90723209,3.608924,423.9728065,0.223694,0.159749677,21,5,17.171,423.9728065,3.608924,0.223694,0.520124689,0.223694,0,0,357,0.6,-1,0,0,1024,1024,1024,1024,356.4,0,100,4.308,4.294,4.285,4.284,0,0,6.964,89.06,423.9728065,3.608924,6,P-GPS,
7900,5/3/2019 20:31,-3.251885269,-72.90723206,3.608924,423.9728065,0.223694,0.218253944,21,5,17.171,423.9728065,3.608924,0.223694,0.520124689,0.223694,0,0,357,1.3,-0.9,0,0,1024,1024,1024,1024,356.4,0,100,4.308,4.294,4.285,4.284,0,0,6.964,89.06,423.9728065,3.608924,6,P-GPS,
8000,5/3/2019 20:31,-3.251885262,-72.90723199,3.608924,423.9728065,0.223694,0.217260178,21,5,17.16,423.9728065,3.608924,0.223694,0.520124689,0.223694,0,0,357.1,1.1,-0.8,0,0,1024,1024,1024,1024,356.4,0,100,4.309,4.291,4.279,4.281,0,0,7.059,89.24,423.9728065,3.608924,6,P-GPS,
8100,5/3/2019 20:31,-3.251885133,-72.90723194,3.608924,423.9728065,0.223694,0.263491806,20,5,17.16,423.9728065,3.608924,0.223694,0.520124689,0.223694,0,0,357.2,1.2,-1,0,0,1024,1024,1024,1024,356.4,0,100,4.309,4.291,4.279,4.281,0,0,7.059,89.24,423.9728065,3.608924,6,P-GPS,
8200,5/3/2019 20:31,-3.251885075,-72.90723168,3.608924,423.9728065,0,0.2994485,20,5,17.16,423.9728065,3.608924,0.223694,0.520124689,0,0,0,357.1,1.1,-1.4,0,0,1024,1024,1024,1024,356.4,0,100,4.309,4.291,4.279,4.281,0,0,7.059,89.24,423.9728065,3.608924,6,P-GPS,
8300,5/3/2019 20:31,-3.251885002,-72.90723161,3.608924,423.9728065,0,0.333500667,20,5,17.16,423.9728065,3.608924,0.223694,0.520124689,0,0,0,357.2,0.8,-1.6,0,0,1024,1024,1024,1024,356.4,0,100,4.309,4.291,4.279,4.281,0,0,7.059,89.24,423.9728065,3.608924,6,P-GPS,
8400,5/3/2019 20:31,-3.25188493,-72.90723171,3.608924,423.9728065,0,0.34835303,21,5,17.16,423.9728065,3.608924,0.223694,0.520124689,0,0,0,357.2,0.7,-1.8,0,0,1024,1024,1024,1024,356.4,0,100,4.309,4.291,4.279,4.281,0,0,7.059,89.24,423.9728065,3.608924,6,P-GPS,
8500,5/3/2019 20:31,-3.251884896,-72.90723166,3.608924,423.9728065,0,0.364885182,21,5,17.16,423.9728065,3.608924,0.223694,0.520124689,0,0,0,357.3,0.5,-1.7,0,0,1024,1024,1024,1024,356.4,0,100,4.309,4.291,4.279,4.281,0,0,7.059,89.24,423.9728065,3.608924,6,P-GPS,
8600,5/3/2019 20:31,-3.251884746,-72.90723179,3.608924,423.9728065,0,0.408533478,21,5,17.16,423.9728065,3.608924,0.223694,0.520124689,0,0,0,357.3,0.2,-1.6,0,0,1024,1024,1102,1024,356.4,0,100,4.309,4.291,4.279,4.281,0,0,7.059,89.24,423.9728065,3.608924,6,P-GPS,
8700,5/3/2019 20:31,-3.251884725,-72.90723177,3.608924,423.9728065,0,0.417267074,21,5,17.16,423.9728065,3.608924,0.223694,0.520124689,0,0,0,357.3,0.1,-1.4,0,0,1024,1024,1329,1024,356.4,0,100,4.309,4.291,4.279,4.281,0,0,7.059,89.24,423.9728065,3.608924,6,P-GPS,
8800,5/3/2019 20:31,-3.251884613,-72.90723203,3.608924,423.9728065,0,0.454524293,21,5,17.16,423.9728065,3.608924,0.223694,0.520124689,0,0,0,357.4,0.1,-1.2,0,0,1024,1024,1024,1024,356.4,0,100,4.309,4.291,4.279,4.281,0,0,7.059,89.24,423.9728065,3.608924,6,P-GPS,
8900,5/3/2019 20:31,-3.251884593,-72.90723204,3.608924,423.9728065,0,0.46205054,21,5,17.16,423.9728065,3.608924,0.223694,0.520124689,0,0,-0.447388,357.5,-0.1,-0.8,0,0,1024,1024,1024,1024,356.4,0,100,4.309,4.291,4.279,4.281,0,0,7.059,89.24,423.9728065,3.608924,6,P-GPS,
9000,5/3/2019 20:31,-3.251884701,-72.90723207,3.937008,424.3008905,0,0.423795945,21,5,17.16,424.3008905,3.937008,0.223694,0.520124689,0,0,-0.223694,357.4,-0.1,-1.2,0,0,1024,1024,1262,1024,356.4,0,100,4.309,4.291,4.279,4.281,0,0,7.059,89.24,424.3008905,3.937008,6,P-GPS,
9100,5/3/2019 20:31,-3.251884692,-72.90723207,3.937008,424.3008905,0,0.427303163,21,5,17.119,424.3008905,3.937008,0.223694,0.520124689,0,0,0,357.4,0,-1.6,0,0,1024,1024,1178,1024,356.4,0,99,4.303,4.289,4.274,4.253,0,0,7.08,89.24,424.3008905,3.937008,6,P-GPS,
9200,5/3/2019 20:31,-3.251884583,-72.90723221,3.937008,424.3008905,0,0.474681774,21,5,17.119,424.3008905,3.937008,0.223694,0.520124689,0,0,-0.223694,357.5,0,-1.3,0,0,1024,1024,1024,1024,356.4,0,99,4.303,4.289,4.274,4.253,0,0,7.08,89.24,424.3008905,3.937008,6,P-GPS,
9300,5/3/2019 20:31,-3.25188457,-72.90723224,3.937008,424.3008905,0,0.481414057,21,5,17.119,424.3008905,3.937008,0.223694,0.520124689,0,0,-0.447388,357.4,-0.3,-1.2,0,0,1024,1024,1302,1024,356.4,0,99,4.303,4.289,4.274,4.253,0,0,7.08,89.24,424.3008905,3.937008,6,P-GPS,
9400,5/3/2019 20:31,-3.251884608,-72.90723221,3.937008,424.3008905,0,0.465544634,21,5,17.119,424.3008905,3.937008,0.223694,0.520124689,0,0,-0.223694,357.3,-0.1,-1.3,0,0,1024,1024,1351,1024,356.4,0,99,4.303,4.289,4.274,4.253,0,0,7.08,89.24,424.3008905,3.937008,6,P-GPS,
9500,5/3/2019 20:31,-3.251884595,-72.90723222,3.937008,424.3008905,0,0.471601065,21,5,17.119,424.3008905,3.937008,0.223694,0.520124689,0,0,-0.223694,357.3,0,-1.3,0,0,1024,1024,1024,1024,356.4,0,99,4.303,4.289,4.274,4.253,0,0,7.08,89.24,424.3008905,3.937008,6,P-GPS,
9600,5/3/2019 20:31,-3.251884468,-72.90723219,3.937008,424.3008905,0,0.514409465,21,5,17.119,424.3008905,3.937008,0.223694,0.520124689,0,0,-0.671082,357.3,-0.2,-1.5,0,0,1024,1024,1024,1024,356.4,0,99,4.303,4.289,4.274,4.253,0,0,7.08,89.24,424.3008905,3.937008,6,P-GPS,
9700,5/3/2019 20:31,-3.251884446,-72.9072322,4.265092,424.6289745,0,0.523103691,21,5,17.119,424.6289745,4.265092,0.223694,0.523103691,0,0,-0.223694,357.2,0,-2.1,0,0,1024,1024,1024,1024,356.4,0,99,4.303,4.289,4.274,4.253,0,0,7.08,89.24,424.6289745,4.265092,6,P-GPS,
9800,5/3/2019 20:31,-3.25188433,-72.90723201,4.265092,424.6289745,0,0.557309729,21,5,17.119,424.6289745,4.265092,0.223694,0.557309729,0,0,0,357.3,0,-2.1,0,0,1024,681,1024,1024,356.4,0,99,4.303,4.289,4.274,4.253,0,0,7.08,89.24,424.6289745,4.265092,6,P-GPS,
9900,5/3/2019 20:31,-3.251884304,-72.90723201,4.265092,424.6289745,0,0.56676511,21,5,17.119,424.6289745,4.265092,0.223694,0.56676511,0,0,0,357.3,0,-1.8,0,0,1024,364,1024,1024,356.4,0,99,4.303,4.289,4.274,4.253,0,0,7.08,89.24,424.6289745,4.265092,6,P-GPS,
10000,5/3/2019 20:31,-3.251884374,-72.90723203,4.265092,424.6289745,0,0.541676527,21,5,17.119,424.6289745,4.265092,0.223694,0.56676511,0,0,0,357.3,-0.2,-7.5,0,0,1024,929,1024,1024,356.4,0,99,4.303,4.289,4.274,4.253,0,0,7.08,89.24,424.6289745,4.265092,6,P-GPS,
10100,5/3/2019 20:31,-3.25188436,-72.9072321,4.265092,424.6289745,0.223694,0.548615503,21,5,17.101,424.6289745,4.265092,0.223694,0.56676511,0,-0.223694,0,357.3,-0.5,-18.6,0,0,1024,1024,1024,1024,356.4,0,99,4.303,4.28,4.274,4.278,0,0,6.974,89.24,424.6289745,4.265092,6,P-GPS,
10200,5/3/2019 20:31,-3.251884424,-72.90723239,4.265092,424.6289745,0.894776,0.547585319,21,5,17.101,424.6289745,4.265092,0.894776,0.56676511,0,-0.894776,0,357.2,-0.3,-12.7,0,0,1024,1024,1024,1024,356.4,0,99,4.303,4.28,4.274,4.278,0,0,6.974,89.24,424.6289745,4.265092,6,P-GPS,
10300,5/3/2019 20:31,-3.251884428,-72.9072329,4.265092,424.6289745,0.894776,0.626866818,21,5,17.101,424.6289745,4.265092,0.894776,0.626866818,0,-1.11847,0,357.3,-0.4,-2.3,0,0,1024,388,1024,1024,356.4,0,99,4.303,4.28,4.274,4.278,0,0,6.974,89.24,424.6289745,4.265092,6,P-GPS,
10400,5/3/2019 20:31,-3.251884307,-72.90723338,4.265092,424.6289745,1.11847,0.771791363,21,5,17.101,424.6289745,4.265092,1.11847,0.771791363,0,-1.11847,0,357.2,-0.5,-0.5,0,0,1024,554,1024,1024,356.4,0,99,4.303,4.28,4.274,4.278,0,0,6.974,89.24,424.6289745,4.265092,6,P-GPS,
10500,5/3/2019 20:31,-3.251884292,-72.90723387,4.265092,424.6289745,1.11847,0.906007247,21,5,17.101,424.6289745,4.265092,1.11847,0.906007247,0,-1.11847,0,357,0,-11.5,0,0,1024,1024,1024,1024,356.4,0,99,4.303,4.28,4.274,4.278,0,0,6.974,89.24,424.6289745,4.265092,6,P-GPS,
10600,5/3/2019 20:31,-3.25188447,-72.90723422,4.265092,424.6289745,1.565858,0.97202759,21,5,17.101,424.6289745,4.265092,1.565858,0.97202759,0,-1.565858,0,357.1,0,-16.3,0,0,1024,1024,1024,1024,356.4,0,99,4.303,4.28,4.274,4.278,0,0,6.974,89.24,424.6289745,4.265092,6,P-GPS,
10700,5/3/2019 20:31,-3.251884485,-72.90723503,4.265092,424.6289745,2.013246,1.233182454,21,5,17.101,424.6289745,4.265092,2.013246,1.233182454,0,-2.013246,0,357.4,-0.2,-4.5,0,0,1024,1024,1024,1024,356.4,0,99,4.303,4.28,4.274,4.278,0,0,6.974,89.24,424.6289745,4.265092,6,P-GPS,
10800,5/3/2019 20:31,-3.251884638,-72.90723595,4.265092,424.6289745,2.013246,1.52590228,21,5,17.101,424.6289745,4.265092,2.013246,1.52590228,0,-2.013246,0,357.3,-0.2,4,0,0,1024,1024,1024,1024,356.4,0,99,4.303,4.28,4.274,4.278,0,0,6.974,89.24,424.6289745,4.265092,6,P-GPS,
10900,5/3/2019 20:31,-3.251884668,-72.90723676,4.265092,424.6289745,1.789552,1.807988903,20,5,17.101,424.6289745,4.265092,2.013246,1.807988903,0,-1.789552,0,357.2,-0.2,7.3,0,0,1024,1024,1024,1024,356.4,0,99,4.303,4.28,4.274,4.278,0,0,6.974,89.24,424.6289745,4.265092,6,P-GPS,
11000,5/3/2019 20:31,-3.251884646,-72.90723744,4.265092,424.6289745,1.342164,2.05286752,20,5,17.101,424.6289745,4.265092,2.013246,2.05286752,0,-1.342164,0,357.3,-0.2,7.3,0,0,1024,1024,1024,1024,356.4,0,99,4.303,4.28,4.274,4.278,0,0,6.974,89.24,424.6289745,4.265092,6,P-GPS,
11100,5/3/2019 20:31,-3.251884661,-72.90723798,4.265092,424.6289745,1.11847,2.241899678,21,5,17.125,424.6289745,4.265092,2.013246,2.241899678,0,-1.11847,0,357.5,-0.4,5.6,0,0,1024,1024,1024,1024,356.4,0,99,4.293,4.282,4.274,4.277,0,0,7.304,89.24,424.6289745,4.265092,6,P-GPS,
11200,5/3/2019 20:31,-3.251885054,-72.90723847,4.265092,424.6289745,0.894776,2.397188397,21,5,17.125,424.6289745,4.265092,2.013246,2.397188397,0,-0.894776,0,357.6,-0.5,4.2,0,0,1024,1024,1024,1024,356.4,0,99,4.293,4.282,4.274,4.277,0,0,7.304,89.24,424.6289745,4.265092,6,P-GPS,
11300,5/3/2019 20:31,-3.25188509,-72.90723879,4.265092,424.6289745,0.671082,2.512411498,20,5,17.125,424.6289745,4.265092,2.013246,2.512411498,0,-0.671082,0,357.5,-0.1,3.5,0,0,1024,1684,1024,1024,356.4,0,99,4.293,4.282,4.274,4.277,0,0,7.304,89.24,424.6289745,4.265092,6,P-GPS,
11400,5/3/2019 20:31,-3.251885409,-72.90723898,4.265092,424.6289745,0.671082,2.569701526,20,5,17.125,424.6289745,4.265092,2.013246,2.569701526,0,-0.447388,0,357,0,3.7,0,0,1024,1267,1024,1024,356.4,0,99,4.293,4.282,4.274,4.277,0,0,7.304,89.24,424.6289745,4.265092,6,P-GPS,
11500,5/3/2019 20:31,-3.25188546,-72.90723911,4.265092,424.6289745,0.223694,2.617014519,20,5,17.125,424.6289745,4.265092,2.013246,2.617014519,0,-0.223694,0,356.4,-0.1,14.2,0,0,1024,1024,1024,1024,356.4,0,99,4.293,4.282,4.274,4.277,0,0,7.304,89.24,424.6289745,4.265092,6,P-GPS,
11600,5/3/2019 20:31,-3.251885446,-72.90723889,4.265092,424.6289745,0.223694,2.535091945,20,5,17.125,424.6289745,4.265092,2.013246,2.617014519,0,0.223694,0,356.3,-0.2,13.4,0,0,1024,1024,1024,1024,356.4,0,99,4.293,4.282,4.274,4.277,0,0,7.304,89.24,424.6289745,4.265092,6,P-GPS,
11700,5/3/2019 20:31,-3.251885463,-72.90723855,4.265092,424.6289745,0.671082,2.410731704,20,5,17.125,424.6289745,4.265092,2.013246,2.617014519,0,0.671082,0,356.3,-0.2,2.3,0,0,1024,1024,1024,1024,356.4,0,99,4.293,4.282,4.274,4.277,0,0,7.304,89.24,424.6289745,4.265092,6,P-GPS,
11800,5/3/2019 20:31,-3.251885466,-72.90723831,4.265092,424.6289745,0.894776,2.324872122,21,5,17.125,424.6289745,4.265092,2.013246,2.617014519,0,0.894776,0,356.2,0,-2.8,0,0,1024,1684,1024,1024,356.4,0,99,4.293,4.282,4.274,4.277,0,0,7.304,89.24,424.6289745,4.265092,6,P-GPS,
11900,5/3/2019 20:31,-3.251885485,-72.90723792,4.265092,424.6289745,0.671082,2.182490227,21,5,17.125,424.6289745,4.265092,2.013246,2.617014519,0,0.671082,0,356,0.1,-3,0,0,1024,1586,1024,1024,356.4,0,99,4.293,4.282,4.274,4.277,0,0,7.304,89.24,424.6289745,4.265092,6,P-GPS,
12000,5/3/2019 20:31,-3.251885253,-72.90723768,4.265092,424.6289745,0.671082,2.103339962,21,5,17.125,424.6289745,4.265092,2.013246,2.617014519,0,0.671082,0,356,0.3,9.9,0,0,1024,1024,1024,1024,356.4,0,99,4.293,4.282,4.274,4.277,0,0,7.304,89.24,424.6289745,4.265092,6,P-GPS,
12100,5/3/2019 20:31,-3.251885258,-72.90723718,4.265092,424.6289745,1.342164,1.920026308,21,5,17.125,424.6289745,4.265092,2.013246,2.617014519,0,1.342164,0,356.1,0.1,15.8,0,0,1024,1024,1024,1024,356.4,0,99,4.293,4.282,4.274,4.277,0,0,7.304,89.24,424.6289745,4.265092,6,P-GPS,
12200,5/3/2019 20:31,-3.251885122,-72.90723673,4.265092,424.6289745,2.013246,1.765164098,21,5,17.128,424.6289745,4.265092,2.013246,2.617014519,0,2.013246,0,356.1,-0.2,3.7,0,0,1024,1024,1024,1024,356.4,0,99,4.296,4.281,4.275,4.276,0,0,7.287,89.42,424.6289745,4.265092,6,P-GPS,
12300,5/3/2019 20:31,-3.2518851,-72.90723589,4.265092,424.6289745,2.013246,1.464028918,21,5,17.128,424.6289745,4.265092,2.013246,2.617014519,0,2.013246,0,356.2,-0.3,-5.7,0,0,1024,1024,1024,1024,356.4,0,99,4.296,4.281,4.275,4.276,0,0,7.287,89.42,424.6289745,4.265092,6,P-GPS,
12400,5/3/2019 20:31,-3.25188481,-72.90723502,4.265092,424.6289745,1.789552,1.18411093,21,5,17.128,424.6289745,4.265092,2.013246,2.617014519,0,1.789552,0,356.4,-0.2,-9.6,0,0,1024,1024,1024,1024,356.4,0,99,4.296,4.281,4.275,4.276,0,0,7.287,89.42,424.6289745,4.265092,6,P-GPS,
12500,5/3/2019 20:31,-3.25188478,-72.90723437,4.265092,424.6289745,1.342164,0.969363548,21,5,17.128,424.6289745,4.265092,2.013246,2.617014519,0,1.342164,0,356.6,-0.3,-9.4,0,0,1024,1024,1024,1024,356.4,0,99,4.296,4.281,4.275,4.276,0,0,7.287,89.42,424.6289745,4.265092,6,P-GPS,
12600,5/3/2019 20:31,-3.251884711,-72.90723405,4.265092,424.6289745,1.11847,0.875144385,21,5,17.128,424.6289745,4.265092,2.013246,2.617014519,0,1.11847,0,356.2,-0.3,-7.7,0,0,1024,1024,1024,1024,356.4,0,99,4.296,4.281,4.275,4.276,0,0,7.287,89.42,424.6289745,4.265092,6,P-GPS,
12700,5/3/2019 20:31,-3.251884692,-72.90723363,4.265092,424.6289745,0.894776,0.748353042,21,5,17.128,424.6289745,4.265092,2.013246,2.617014519,0,0.894776,0,356,-0.3,-6.5,0,0,1024,1024,1024,1024,356.4,0,99,4.296,4.281,4.275,4.276,0,0,7.287,89.42,424.6289745,4.265092,6,P-GPS,
12800,5/3/2019 20:31,-3.25188435,-72.90723304,4.265092,424.6289745,0.671082,0.679599759,21,5,17.128,424.6289745,4.265092,2.013246,2.617014519,0,0.671082,0,356.1,-0.3,-5.8,0,0,1024,1024,1024,1024,356.4,0,99,4.296,4.281,4.275,4.276,0,0,7.287,89.42,424.6289745,4.265092,6,P-GPS,
12900,5/3/2019 20:31,-3.25188431,-72.90723277,4.265092,424.6289745,0.671082,0.640187028,21,5,17.128,424.6289745,4.265092,2.013246,2.617014519,0,0.671082,0,356.1,-0.2,-5.2,0,0,1024,483,1024,1024,356.4,0,99,4.296,4.281,4.275,4.276,0,0,7.287,89.42,424.6289745,4.265092,6,P-GPS,
13000,5/3/2019 20:31,-3.251884137,-72.90723262,4.265092,424.6289745,0.447388,0.674169969,21,5,17.128,424.6289745,4.265092,2.013246,2.617014519,0,0.447388,0,356.1,-0.2,-5,0,0,1024,364,1024,1024,356.4,0,99,4.296,4.281,4.275,4.276,0,0,7.287,89.42,424.6289745,4.265092,6,P-GPS,
13100,5/3/2019 20:31,-3.251884092,-72.90723249,4.265092,424.6289745,0.223694,0.673605665,21,5,17.128,424.6289745,4.265092,2.013246,2.617014519,0,0.223694,0,356.1,-0.4,-13.3,0,0,1024,502,1024,1024,356.4,0,99,4.296,4.281,4.275,4.276,0,0,7.287,89.42,424.6289745,4.265092,6,P-GPS,
13200,5/3/2019 20:31,-3.25188392,-72.90723254,4.265092,424.6289745,0.223694,0.738858291,21,5,17.119,424.6289745,4.265092,2.013246,2.617014519,0,-0.223694,0,356,-0.5,-21.3,0,0,1024,1024,1024,1024,356.4,0,99,4.296,4.281,4.271,4.271,0,0,6.961,89.42,424.6289745,4.265092,6,P-GPS,
13300,5/3/2019 20:31,-3.251883886,-72.90723286,4.265092,424.6289745,0.223694,0.792352388,21,5,17.119,424.6289745,4.265092,2.013246,2.617014519,0,-0.894776,0,355.9,-0.5,-23.3,0,0,1024,1024,1024,1024,356.4,0,99,4.296,4.281,4.271,4.271,0,0,6.961,89.42,424.6289745,4.265092,6,P-GPS,
13400,5/3/2019 20:31,-3.251883751,-72.9072331,4.265092,424.6289745,1.789552,0.875807115,21,5,17.119,424.6289745,4.265092,2.013246,2.617014519,0,-1.789552,0,355.7,-0.4,-8.4,0,0,1024,1024,1024,1024,356.4,0,99,4.296,4.281,4.271,4.271,0,0,6.961,89.42,424.6289745,4.265092,6,P-GPS,
13500,5/3/2019 20:31,-3.251883736,-72.90723389,4.265092,424.6289745,1.789552,1.050672606,21,5,17.119,424.6289745,4.265092,2.013246,2.617014519,0,-1.789552,0,355.5,-0.2,1.9,0,0,1024,788,1024,1024,356.4,0,99,4.296,4.281,4.271,4.271,0,0,6.961,89.42,424.6289745,4.265092,6,P-GPS,
13600,5/3/2019 20:31,-3.251884065,-72.90723454,4.265092,424.6289745,1.565858,1.150862898,21,5,17.119,424.6289745,4.265092,2.013246,2.617014519,0,-1.565858,0,355.3,-0.2,5.6,0,0,1024,386,1024,1024,356.4,0,99,4.296,4.281,4.271,4.271,0,0,6.961,89.42,424.6289745,4.265092,6,P-GPS,
13700,5/3/2019 20:31,-3.251884077,-72.90723518,4.265092,424.6289745,1.342164,1.348356342,21,5,17.119,424.6289745,4.265092,2.013246,2.617014519,0,-1.342164,0,355.2,-0.3,1.3,0,0,1024,368,1024,1024,356.4,0,99,4.296,4.281,4.271,4.271,0,0,6.961,89.42,424.6289745,4.265092,6,P-GPS,
13800,5/3/2019 20:31,-3.251884399,-72.90723557,4.265092,424.6289745,1.342164,1.426870124,21,5,17.119,424.6289745,4.265092,2.013246,2.617014519,0,-1.342164,0,355.6,-0.2,-11.8,0,0,1024,1024,1024,1024,356.4,0,99,4.296,4.281,4.271,4.271,0,0,6.961,89.42,424.6289745,4.265092,6,P-GPS,
13900,5/3/2019 20:31,-3.251884454,-72.90723626,4.265092,424.6289745,2.0356154,1.656233649,21,5,17.119,424.6289745,4.265092,2.0356154,2.617014519,-0.223694,-2.013246,0,355.7,-0.4,-19.2,0,0,1024,1024,1024,1024,356.4,0,99,4.296,4.281,4.271,4.271,0,0,6.961,89.42,424.6289745,4.265092,6,P-GPS,
14000,5/3/2019 20:31,-3.251884408,-72.90723729,4.265092,424.6289745,2.684328,2.018841928,21,5,17.119,424.6289745,4.265092,2.684328,2.617014519,-0.223694,-2.684328,0,355.5,-0.9,-7.3,0,0,1024,1024,1024,1024,356.4,0,99,4.296,4.281,4.271,4.271,0,0,6.961,89.42,424.6289745,4.265092,6,P-GPS,
14100,5/3/2019 20:31,-3.251884482,-72.90723838,4.265092,424.6289745,2.684328,2.398736953,21,5,17.119,424.6289745,4.265092,2.684328,2.617014519,-0.223694,-2.684328,0,355.2,-0.7,5,0,0,1024,1024,1024,1024,356.4,0,99,4.296,4.281,4.271,4.271,0,0,6.961,89.42,424.6289745,4.265092,6,P-GPS,
14200,5/3/2019 20:31,-3.251884905,-72.90723945,4.265092,424.6289745,2.23694,2.757473842,21,5,17.119,424.6289745,4.265092,2.684328,2.757473842,-0.223694,-2.23694,0,355,-0.6,10,0,0,1024,1024,1024,1024,356.4,0,99,4.296,4.281,4.271,4.271,0,0,6.961,89.42,424.6289745,4.265092,6,P-GPS,
14300,5/3/2019 20:31,-3.251884984,-72.90724025,4.265092,424.6289745,1.8119214,3.045180544,19,5,17.067,424.6289745,4.265092,2.684328,3.045180544,-0.223694,-1.789552,0,354.7,-0.4,9.8,0,0,1024,1024,1024,1024,356.4,0,99,4.284,4.245,4.262,4.275,0,0,7.442,89.42,424.6289745,4.265092,6,P-GPS,
14400,5/3/2019 20:31,-3.251885387,-72.90724032,4.265092,424.6289745,1.3645334,3.056161515,19,5,17.067,424.6289745,4.265092,2.684328,3.056161515,-0.223694,-1.342164,0,355.3,-0.3,7.8,0,0,1024,1024,1024,1024,356.4,0,99,4.284,4.245,4.262,4.275,0,0,7.442,89.42,424.6289745,4.265092,6,P-GPS,
14500,5/3/2019 20:31,-3.251885478,-72.90724076,4.265092,424.6289745,1.11847,3.215639867,19,5,17.067,424.6289745,4.265092,2.684328,3.215639867,0,-1.11847,0,355.4,-0.5,6.2,0,0,1024,1480,1024,1024,356.4,0,99,4.284,4.245,4.262,4.275,0,0,7.442,89.42,424.6289745,4.265092,6,P-GPS,
14600,5/3/2019 20:31,-3.251885653,-72.90724127,4.265092,424.6289745,0.671082,3.401049978,19,5,17.067,424.6289745,4.265092,2.684328,3.401049978,0,-0.671082,0,355.4,-0.9,4.6,0,0,1024,1684,1024,1024,356.4,0,99,4.284,4.245,4.262,4.275,0,0,7.442,89.42,424.6289745,4.265092,6,P-GPS,
14700,5/3/2019 20:31,-3.251885726,-72.90724148,4.265092,424.6289745,0.447388,3.475951555,19,5,17.067,424.6289745,4.265092,2.684328,3.475951555,0,-0.447388,0,355,-0.8,9.2,0,0,1024,1024,1024,1024,356.4,0,99,4.284,4.245,4.262,4.275,0,0,7.442,89.42,424.6289745,4.265092,6,P-GPS,
14800,5/3/2019 20:31,-3.251886057,-72.90724148,4.265092,424.6289745,0,3.475000111,21,5,17.067,424.6289745,4.265092,2.684328,3.475951555,0,0,0,355.1,-0.6,17,0,0,1024,1024,1024,1024,356.4,0,99,4.284,4.245,4.262,4.275,0,0,7.442,89.42,424.6289745,4.265092,6,P-GPS,
14900,5/3/2019 20:31,-3.251886116,-72.90724126,4.265092,424.6289745,0.447388,3.394914807,21,5,17.067,424.6289745,4.265092,2.684328,3.475951555,0,0.447388,0,355.3,-0.7,8.1,0,0,1024,1024,1024,1024,356.4,0,99,4.284,4.245,4.262,4.275,0,0,7.442,89.42,424.6289745,4.265092,6,P-GPS,
15000,5/3/2019 20:31,-3.251886126,-72.90724132,4.265092,424.6289745,0.671082,3.418110346,21,5,17.067,424.6289745,4.265092,2.684328,3.475951555,0,0.671082,0,355.3,-0.6,0.2,0,0,1024,1024,1024,1024,356.4,0,99,4.284,4.245,4.262,4.275,0,0,7.442,89.42,424.6289745,4.265092,6,P-GPS,
15100,5/3/2019 20:31,-3.251886161,-72.9072409,4.265092,424.6289745,0.671082,3.267142493,21,5,17.067,424.6289745,4.265092,2.684328,3.475951555,0,0.671082,0,355.4,-0.7,-3.4,0,0,1024,1302,1024,1024,356.4,0,99,4.284,4.245,4.262,4.275,0,0,7.442,89.42,424.6289745,4.265092,6,P-GPS,
15200,5/3/2019 20:31,-3.251886105,-72.90724085,4.265092,424.6289745,0.671082,3.247939736,21,5,17.067,424.6289745,4.265092,2.684328,3.475951555,0,0.671082,0,355.4,-0.7,-4.5,0,0,1024,1684,1024,1024,356.4,0,99,4.284,4.245,4.262,4.275,0,0,7.442,89.42,424.6289745,4.265092,6,P-GPS,
15300,5/3/2019 20:31,-3.251886141,-72.90724055,4.265092,424.6289745,0.447388,3.137149051,21,5,17.127,424.6289745,4.265092,2.684328,3.475951555,0,0.447388,0,355.2,-0.8,3.2,0,0,1024,1214,1024,1024,356.4,0,99,4.294,4.282,4.274,4.276,0,0,7.104,89.6,424.6289745,4.265092,6,P-GPS,
15400,5/3/2019 20:31,-3.251886059,-72.90724043,4.265092,424.6289745,0.894776,3.093533564,21,5,17.127,424.6289745,4.265092,2.684328,3.475951555,0,0.894776,0,355.1,-0.6,16.8,0,0,1024,1024,1024,1024,356.4,0,99,4.294,4.282,4.274,4.276,0,0,7.104,89.6,424.6289745,4.265092,6,P-GPS,
15500,5/3/2019 20:31,-3.251886059,-72.90723988,4.265092,424.6289745,0.894776,2.892690381,21,5,17.127,424.6289745,4.265092,2.684328,3.475951555,0,1.565858,0,355.4,-0.6,14.4,0,0,1024,1024,1024,1024,356.4,0,99,4.294,4.282,4.274,4.276,0,0,7.104,89.6,424.6289745,4.265092,6,P-GPS,
15600,5/3/2019 20:31,-3.251885673,-72.90723903,4.265092,424.6289745,2.013246,2.585288797,21,5,17.127,424.6289745,4.265092,2.684328,3.475951555,0,2.013246,0,355.5,-0.6,0.5,0,0,1024,1024,1024,1024,356.4,0,99,4.294,4.282,4.274,4.276,0,0,7.104,89.6,424.6289745,4.265092,6,P-GPS,
15700,5/3/2019 20:31,-3.251885618,-72.90723817,4.265092,424.6289745,2.013246,2.271502697,21,5,17.127,424.6289745,4.265092,2.684328,3.475951555,0,2.013246,0,355.5,-0.3,-7.4,0,0,1024,1024,1024,1024,356.4,0,99,4.294,4.282,4.274,4.276,0,0,7.104,89.6,424.6289745,4.265092,6,P-GPS,
15800,5/3/2019 20:31,-3.251885297,-72.90723758,4.265092,424.6289745,1.565858,2.065816995,21,5,17.127,424.6289745,4.265092,2.684328,3.475951555,0,1.565858,0,355.5,-0.1,-9.9,0,0,1024,1024,1024,1024,356.4,0,99,4.294,4.282,4.274,4.276,0,0,7.104,89.6,424.6289745,4.265092,6,P-GPS,
15900,5/3/2019 20:31,-3.251885243,-72.90723696,4.265092,424.6289745,1.11847,1.844245466,21,5,17.127,424.6289745,4.265092,2.684328,3.475951555,0,1.11847,0,355.3,-0.1,-9,0,0,1024,1024,1024,1024,356.4,0,99,4.294,4.282,4.274,4.276,0,0,7.104,89.6,424.6289745,4.265092,6,P-GPS,
16000,5/3/2019 20:31,-3.251884946,-72.90723677,4.265092,424.6289745,0.894776,1.790587328,21,5,17.127,424.6289745,4.265092,2.684328,3.475951555,0,0.894776,0,355.3,-0.1,-7.4,0,0,1024,842,1024,1024,356.4,0,99,4.294,4.282,4.274,4.276,0,0,7.104,89.6,424.6289745,4.265092,6,P-GPS,
16100,5/3/2019 20:31,-3.251884903,-72.90723639,4.265092,424.6289745,0.894776,1.657959371,21,5,17.127,424.6289745,4.265092,2.684328,3.475951555,0,0.894776,0,355.3,-0.2,-6.3,0,0,1024,702,1024,1024,356.4,0,99,4.294,4.282,4.274,4.276,0,0,7.104,89.6,424.6289745,4.265092,6,P-GPS,
16200,5/3/2019 20:31,-3.251884844,-72.90723591,4.265092,424.6289745,0.671082,1.492811728,20,5,17.127,424.6289745,4.265092,2.684328,3.475951555,0,0.671082,0,355.3,-0.4,-6.4,0,0,1024,1024,1024,1024,356.4,0,99,4.294,4.282,4.274,4.276,0,0,7.104,89.6,424.6289745,4.265092,6,P-GPS,
16300,5/3/2019 20:31,-3.251884816,-72.90723569,4.265092,424.6289745,0.447388,1.417742828,20,5,17.106,424.6289745,4.265092,2.684328,3.475951555,0,0.447388,0,355.3,-0.8,-7.8,0,0,1024,1024,1024,1024,356.4,0,99,4.291,4.276,4.266,4.268,0,0,7.167,89.6,424.6289745,4.265092,6,P-GPS,
16400,5/3/2019 20:31,-3.251884532,-72.90723534,4.265092,424.6289745,0.223694,1.329445581,21,5,17.106,424.6289745,4.265092,2.684328,3.475951555,0,0.223694,0,355.3,-0.9,-5.1,0,0,1024,1024,1024,1024,356.4,0,99,4.291,4.276,4.266,4.268,0,0,7.167,89.6,424.6289745,4.265092,6,P-GPS,
16500,5/3/2019 20:31,-3.251884482,-72.90723528,4.265092,424.6289745,0.223694,1.314881932,21,5,17.106,424.6289745,4.265092,2.684328,3.475951555,0,0.223694,0,355.2,-0.7,-3.4,0,0,1024,1024,1024,1024,356.4,0,99,4.291,4.276,4.266,4.268,0,0,7.167,89.6,424.6289745,4.265092,6,P-GPS,
16600,5/3/2019 20:31,-3.251884305,-72.90723523,4.265092,424.6289745,0,1.324517759,21,5,17.106,424.6289745,4.265092,2.684328,3.475951555,0,0,0,355.2,-0.6,-2.3,0,0,1024,1024,1024,1024,356.4,0,99,4.291,4.276,4.266,4.268,0,0,7.167,89.6,424.6289745,4.265092,6,P-GPS,
16700,5/3/2019 20:31,-3.251884239,-72.90723522,4.265092,424.6289745,0,1.332066972,21,5,17.106,424.6289745,4.265092,2.684328,3.475951555,0,0,0,355.2,-0.5,-1.9,0,0,1024,1024,1070,1024,356.4,0,99,4.291,4.276,4.266,4.268,0,0,7.167,89.6,424.6289745,4.265092,6,P-GPS,
16800,5/3/2019 20:31,-3.251884201,-72.90723465,4.265092,424.6289745,0,1.158887832,20,5,17.106,424.6289745,4.265092,2.684328,3.475951555,0,0,0,355.2,-0.5,-1.8,0,0,1024,1024,1245,1024,356.4,0,99,4.291,4.276,4.266,4.268,0,0,7.167,89.6,424.6289745,4.265092,6,P-GPS,
16900,5/3/2019 20:31,-3.251884135,-72.90723462,4.265092,424.6289745,0,1.161273003,20,5,17.106,424.6289745,4.265092,2.684328,3.475951555,0,0,0,355.2,-0.6,-1.8,0,0,1024,1024,1024,1024,356.4,0,99,4.291,4.276,4.266,4.268,0,0,7.167,89.6,424.6289745,4.265092,6,P-GPS,
17000,5/3/2019 20:31,-3.251884255,-72.9072347,4.265092,424.6289745,0,1.161587964,20,5,17.106,424.6289745,4.265092,2.684328,3.475951555,0,0,-0.223694,355.2,-0.6,-1.7,0,0,1024,1024,1024,1024,356.4,0,99,4.291,4.276,4.266,4.268,0,0,7.167,89.6,424.6289745,4.265092,6,P-GPS,
17100,5/3/2019 20:31,-3.251884204,-72.90723468,4.265092,424.6289745,0,1.16614177,20,5,17.106,424.6289745,4.265092,2.684328,3.475951555,0,0,-0.223694,355.2,-0.6,-1.8,0,0,1024,1024,1024,1024,356.4,0,99,4.291,4.276,4.266,4.268,0,0,7.167,89.6,424.6289745,4.265092,6,P-GPS,
17200,5/3/2019 20:31,-3.251884153,-72.90723447,4.265092,424.6289745,0,1.112736256,20,5,17.106,424.6289745,4.265092,2.684328,3.475951555,0,0,0,355.3,-0.5,-1.7,0,0,1024,1024,1024,477,356.2,0,99,4.291,4.276,4.266,4.268,0,0,7.167,89.6,424.6289745,4.265092,6,P-GPS,
17300,5/3/2019 20:31,-3.251884102,-72.90723444,4.265092,424.6289745,0,1.114711322,20,5,17.106,424.6289745,4.265092,2.684328,3.475951555,0,0,0,355.2,-0.6,-1.8,0,0,1024,1024,1024,750,352.9,0,99,4.291,4.276,4.266,4.268,0,0,7.167,89.6,424.6289745,4.265092,6,P-GPS,
17400,5/3/2019 20:31,-3.251884204,-72.90723438,4.265092,424.6289745,0,1.07537405,20,5,17.089,424.6289745,4.265092,2.684328,3.475951555,0,0,0,352.3,-0.9,-1.6,0,0,1024,1024,1024,1024,351.7,0,99,4.28,4.267,4.267,4.276,0,0,6.916,89.6,424.6289745,4.265092,6,P-GPS,
17500,5/3/2019 20:31,-3.25188416,-72.90723436,4.265092,424.6289745,0,1.076952134,20,5,17.089,424.6289745,4.265092,2.684328,3.475951555,0,0,0,351,-1,-1.8,0,0,1024,1024,1024,1024,351.7,0,99,4.28,4.267,4.267,4.276,0,0,6.916,89.6,424.6289745,4.265092,6,P-GPS,
17600,5/3/2019 20:31,-3.251884227,-72.90723459,4.265092,424.6289745,0,1.134675233,20,5,17.089,424.6289745,4.265092,2.684328,3.475951555,0,0,0,350.9,-1,-1.5,0,0,1024,1024,1024,777,351.7,0,99,4.28,4.267,4.267,4.276,0,0,6.916,89.6,424.6289745,4.265092,6,P-GPS,
17700,5/3/2019 20:31,-3.251884182,-72.90723459,4.265092,424.6289745,0,1.143481008,20,5,17.089,424.6289745,4.265092,2.684328,3.475951555,0,0,0,350.8,-0.6,-1.5,0,0,1024,1024,1024,364,350,0,99,4.28,4.267,4.267,4.276,0,0,6.916,89.6,424.6289745,4.265092,6,P-GPS,
17800,5/3/2019 20:31,-3.251884227,-72.90723459,4.265092,424.6289745,0,1.133152923,20,5,17.089,424.6289745,4.265092,2.684328,3.475951555,0,0,0,349.2,-0.6,-1.6,0,0,1024,1024,1024,687,344.5,0,99,4.28,4.267,4.267,4.276,0,0,6.916,89.6,424.6289745,4.265092,6,P-GPS,
17900,5/3/2019 20:31,-3.251884184,-72.90723458,4.265092,424.6289745,0,1.140380614,20,5,17.089,424.6289745,4.265092,2.684328,3.475951555,0,0,0,344.3,-0.6,-1.7,0,0,1024,1024,1024,1024,342.8,0,99,4.28,4.267,4.267,4.276,0,0,6.916,89.6,424.6289745,4.265092,6,P-GPS,
18000,5/3/2019 20:31,-3.251884235,-72.90723473,4.265092,424.6289745,0,1.175367492,20,5,17.089,424.6289745,4.265092,2.684328,3.475951555,0,0,0,342.4,-1,-2.4,0,0,1024,1024,1024,806,342.8,0,99,4.28,4.267,4.267,4.276,0,0,6.916,89.6,424.6289745,4.265092,6,P-GPS,
18100,5/3/2019 20:31,-3.251884205,-72.90723475,4.265092,424.6289745,0,1.188307125,20,5,17.089,424.6289745,4.265092,2.684328,3.475951555,0,0,0,342,-1.1,-2.2,0,0,1024,1024,1024,364,341,0,99,4.28,4.267,4.267,4.276,0,0,6.916,89.6,424.6289745,4.265092,6,P-GPS,
18200,5/3/2019 20:31,-3.251884272,-72.90723474,4.265092,424.6289745,0,1.172096494,20,5,17.089,424.6289745,4.265092,2.684328,3.475951555,0,0,0,340.3,-1.2,-1.3,0,0,1024,1024,1024,364,335.3,0,99,4.28,4.267,4.267,4.276,0,0,6.916,89.6,424.6289745,4.265092,6,P-GPS,
18300,5/3/2019 20:31,-3.251884252,-72.90723478,4.265092,424.6289745,0,1.188316967,20,5,17.089,424.6289745,4.265092,2.684328,3.475951555,0,0,0,335.1,-1.3,-0.9,0,0,1024,1024,1024,1024,330.8,0,99,4.28,4.267,4.267,4.276,0,0,6.916,89.6,424.6289745,4.265092,6,P-GPS,
18400,5/3/2019 20:31,-3.251884295,-72.90723488,4.265092,424.6289745,0,1.213159488,20,5,17.1,424.6289745,4.265092,2.684328,3.475951555,0,0,0,330.8,-1.2,-1.2,0,0,1024,1024,1024,1024,330.5,0,99,4.291,4.273,4.266,4.271,0,0,6.789,89.6,424.6289745,4.265092,6,P-GPS,
18500,5/3/2019 20:31,-3.251884278,-72.90723493,4.265092,424.6289745,0,1.232109619,20,5,17.1,424.6289745,4.265092,2.684328,3.475951555,0,0,0,330,-1.2,-1.3,0,0,1024,1024,1024,1024,330.5,0,99,4.291,4.273,4.266,4.271,0,0,6.789,89.6,424.6289745,4.265092,6,P-GPS,
18600,5/3/2019 20:31,-3.25188415,-72.90723501,4.265092,424.6289745,0,1.281601091,20,5,17.1,424.6289745,4.265092,2.684328,3.475951555,0,0,0,329.8,-1.2,-1,0,0,1024,1024,1024,1024,330.5,0,99,4.291,4.273,4.266,4.271,0,0,6.789,89.6,424.6289745,4.265092,6,P-GPS,
18700,5/3/2019 20:31,-3.25188413,-72.90723508,4.265092,424.6289745,0,1.304527601,20,5,17.1,424.6289745,4.265092,2.684328,3.475951555,0,0,0,329.7,-1.2,-0.8,0,0,1024,1024,1024,1024,330.5,0,99,4.291,4.273,4.266,4.271,0,0,6.789,89.6,424.6289745,4.265092,6,P-GPS,
18800,5/3/2019 20:31,-3.251884303,-72.90723505,4.265092,424.6289745,0,1.266604371,20,5,17.1,424.6289745,4.265092,2.684328,3.475951555,0,0,0,329.6,-1.1,-0.6,0,0,1024,1024,1024,1024,330.5,0,99,4.291,4.273,4.266,4.271,0,0,6.789,89.6,424.6289745,4.265092,6,P-GPS,
18900,5/3/2019 20:31,-3.251884302,-72.9072351,4.265092,424.6289745,0,1.282765789,20,5,17.1,424.6289745,4.265092,2.684328,3.475951555,0,0,0,329.6,-1.3,-0.5,0,0,1024,1024,1024,1024,330.5,0,99,4.291,4.273,4.266,4.271,0,0,6.789,89.6,424.6289745,4.265092,6,P-GPS,
19000,5/3/2019 20:31,-3.251884316,-72.90723499,4.265092,424.6289745,0,1.244035473,20,5,17.1,424.6289745,4.265092,2.684328,3.475951555,0,0,0,329.4,-1.4,-0.6,0,0,1024,1024,1024,1024,330.5,0,99,4.291,4.273,4.266,4.271,0,0,6.789,89.6,424.6289745,4.265092,6,P-GPS,
19100,5/3/2019 20:31,-3.251884305,-72.90723502,4.265092,424.6289745,0,1.256807783,20,5,17.1,424.6289745,4.265092,2.684328,3.475951555,0,0,0,329.5,-1.4,-0.4,0,0,1024,1024,1024,1024,330.5,0,99,4.291,4.273,4.266,4.271,0,0,6.789,89.6,424.6289745,4.265092,6,P-GPS,
19200,5/3/2019 20:31,-3.251884292,-72.90723523,4.265092,424.6289745,0,1.32893705,20,5,17.1,424.6289745,4.265092,2.684328,3.475951555,0,0,0,329.5,-1.4,-0.5,0,0,1024,1024,1024,1024,330.5,0,99,4.291,4.273,4.266,4.271,0,0,6.789,89.6,424.6289745,4.265092,6,P-GPS,
19300,5/3/2019 20:31,-3.251884272,-72.90723528,4.265092,424.6289745,0,1.345958048,20,5,17.1,424.6289745,4.265092,2.684328,3.475951555,0,0,0,329.5,-1.2,-0.5,0,0,1024,1024,1024,1024,330.5,0,99,4.291,4.273,4.266,4.271,0,0,6.789,89.6,424.6289745,4.265092,6,P-GPS,
19400,5/3/2019 20:31,-3.251884261,-72.90723532,4.265092,424.6289745,0,1.360833377,20,5,17.1,424.6289745,4.265092,2.684328,3.475951555,0,0,0,329.4,-1.2,-0.4,0,0,1024,1024,1024,1024,330.5,0,99,4.291,4.273,4.266,4.271,0,0,6.789,89.6,424.6289745,4.265092,6,P-GPS,
19500,5/3/2019 20:31,-3.251884242,-72.90723535,4.265092,424.6289745,0,1.375826816,20,5,17.103,424.6289745,4.265092,2.684328,3.475951555,0,0,0,329.4,-1.4,-0.6,0,0,1024,1024,1024,1024,330.5,0,99,4.29,4.276,4.267,4.27,0,0,6.733,89.6,424.6289745,4.265092,6,P-GPS,
19600,5/3/2019 20:31,-3.251884416,-72.9072354,4.265092,424.6289745,0,1.365777603,20,5,17.103,424.6289745,4.265092,2.684328,3.475951555,0,0,0,329.4,-1.6,-0.5,0,0,1024,1024,1024,1024,330.5,0,99,4.29,4.276,4.267,4.27,0,0,6.733,89.6,424.6289745,4.265092,6,P-GPS,
19700,5/3/2019 20:31,-3.251884408,-72.90723544,4.265092,424.6289745,0,1.379402931,20,5,17.103,424.6289745,4.265092,2.684328,3.475951555,0,0,0,329.4,-1.5,-0.5,0,0,1024,1024,1024,1024,330.5,0,99,4.29,4.276,4.267,4.27,0,0,6.733,89.6,424.6289745,4.265092,6,P-GPS,
19800,5/3/2019 20:31,-3.251884412,-72.90723551,4.265092,424.6289745,0,1.402460675,21,5,17.103,424.6289745,4.265092,2.684328,3.475951555,0,0,0,329.4,-1.4,-0.6,0,0,1024,1024,1024,1024,330.5,0,99,4.29,4.276,4.267,4.27,0,0,6.733,89.6,424.6289745,4.265092,6,P-GPS,
19900,5/3/2019 20:31,-3.251884403,-72.90723556,4.265092,424.6289745,0,1.420692303,21,5,17.103,424.6289745,4.265092,2.684328,3.475951555,0,0,0,329.4,-1.3,-0.6,0,0,1024,1024,1024,1024,330.5,0,99,4.29,4.276,4.267,4.27,0,0,6.733,89.6,424.6289745,4.265092,6,P-GPS,
20000,5/3/2019 20:31,-3.251884556,-72.90723565,4.265092,424.6289745,0,1.432139153,21,5,17.103,424.6289745,4.265092,2.684328,3.475951555,0,0,0,329.4,-1.4,-0.5,0,0,1024,1024,1024,1024,330.5,0,99,4.29,4.276,4.267,4.27,0,0,6.733,89.6,424.6289745,4.265092,6,P-GPS,
20100,5/3/2019 20:31,-3.251884563,-72.90723571,4.265092,424.6289745,0,1.453943616,21,5,17.103,424.6289745,4.265092,2.684328,3.475951555,0,0,0,329.5,-1.4,-0.1,0,0,1204,1024,1024,1024,330.5,0,99,4.29,4.276,4.267,4.27,0,0,6.733,89.6,424.6289745,4.265092,6,P-GPS,
20200,5/3/2019 20:31,-3.25188455,-72.9072358,4.265092,424.6289745,0,1.483159496,21,5,17.103,424.6289745,4.265092,2.684328,3.475951555,0,0,0,329.4,-1.1,0.2,0,0,1494,1024,1024,1024,330.5,0,99,4.29,4.276,4.267,4.27,0,0,6.733,89.6,424.6289745,4.265092,6,P-GPS,
20300,5/3/2019 20:31,-3.251884548,-72.90723585,4.265092,424.6289745,0,1.502959366,21,5,17.103,424.6289745,4.265092,2.684328,3.475951555,0,0,0,329.5,-2.6,0.4,0,0,1301,1024,1024,1024,330.5,0,99,4.29,4.276,4.267,4.27,0,0,6.733,89.6,424.6289745,4.265092,6,P-GPS,
20400,5/3/2019 20:31,-3.251884657,-72.90723587,4.265092,424.6289745,0,1.497122751,21,5,17.103,424.6289745,4.265092,2.684328,3.475951555,0,0,0,329.5,-9.3,0.1,0,0,1024,1024,1024,1024,330.5,0,99,4.29,4.276,4.267,4.27,0,0,6.733,89.6,424.6289745,4.265092,6,P-GPS,
20500,5/3/2019 20:31,-3.251884552,-72.90723596,4.265092,424.6289745,0.223694,1.539849131,21,5,17.099,424.6289745,4.265092,2.684328,3.475951555,0.223694,0,0,329.5,-9.7,-0.2,0,0,1024,1024,1024,1024,330.5,0,99,4.29,4.275,4.265,4.268,0,0,6.685,89.6,424.6289745,4.265092,6,P-GPS,
20600,5/3/2019 20:31,-3.251884446,-72.90723606,4.265092,424.6289745,0.4921268,1.588002019,21,5,17.099,424.6289745,4.265092,2.684328,3.475951555,0.447388,-0.223694,0,329.5,-2.5,-0.7,0,0,1024,1024,1024,1024,330.5,0,99,4.29,4.275,4.265,4.268,0,0,6.685,89.6,424.6289745,4.265092,6,P-GPS,
20700,5/3/2019 20:31,-3.251884218,-72.90723621,4.265092,424.6289745,0.4921268,1.667772363,21,5,17.099,424.6289745,4.265092,2.684328,3.475951555,0.447388,-0.223694,0,329.4,0.6,-0.8,0,0,1024,1024,1024,1024,330.5,0,99,4.29,4.275,4.265,4.268,0,0,6.685,89.6,424.6289745,4.265092,6,P-GPS,
20800,5/3/2019 20:31,-3.251884053,-72.90723648,4.265092,424.6289745,0.4921268,1.780210031,21,5,17.099,424.6289745,4.265092,2.684328,3.475951555,0.447388,-0.223694,0,329.3,1.8,-1.2,0,0,1024,1024,1024,1024,330.5,0,99,4.29,4.275,4.265,4.268,0,0,6.685,89.6,424.6289745,4.265092,6,P-GPS,
20900,5/3/2019 20:31,-3.251883896,-72.9072366,4.265092,424.6289745,0.223694,1.841709377,21,5,17.099,424.6289745,4.265092,2.684328,3.475951555,0.223694,0,0,329.4,1.7,-1.1,0,0,1024,1024,1024,1024,330.5,0,99,4.29,4.275,4.265,4.268,0,0,6.685,89.6,424.6289745,4.265092,6,P-GPS,
21000,5/3/2019 20:31,-3.251883817,-72.9072366,4.265092,424.6289745,0.223694,1.852568957,21,5,17.099,424.6289745,4.265092,2.684328,3.475951555,0.223694,0,0,329.3,1.1,-1.1,0,0,1024,1024,1024,1024,330.5,0,99,4.29,4.275,4.265,4.268,0,0,6.685,89.6,424.6289745,4.265092,6,P-GPS,
21100,5/3/2019 20:31,-3.251883733,-72.90723667,4.265092,424.6289745,0.223694,1.889776963,21,5,17.099,424.6289745,4.265092,2.684328,3.475951555,0.223694,0,0,329.3,0.3,-1.2,0,0,1024,1024,1024,1024,330.5,0,99,4.29,4.275,4.265,4.268,0,0,6.685,89.6,424.6289745,4.265092,6,P-GPS,
21200,5/3/2019 20:31,-3.251883823,-72.90723677,4.265092,424.6289745,0,1.910882607,21,5,17.099,424.6289745,4.265092,2.684328,3.475951555,0,0,0,329.3,0,-1.4,0,0,1024,1024,1024,1024,330.5,0,99,4.29,4.275,4.265,4.268,0,0,6.685,89.6,424.6289745,4.265092,6,P-GPS,
21300,5/3/2019 20:31,-3.251883813,-72.90723683,4.265092,424.6289745,0,1.932106361,21,5,17.099,424.6289745,4.265092,2.684328,3.475951555,0,0,0,329.3,-0.1,-1.2,0,0,1024,1024,1024,1024,330.5,0,99,4.29,4.275,4.265,4.268,0,0,6.685,89.6,424.6289745,4.265092,6,P-GPS,
21400,5/3/2019 20:31,-3.251883564,-72.90723689,4.265092,424.6289745,0,1.987336022,21,5,17.099,424.6289745,4.265092,2.684328,3.475951555,0,0,0,329.4,-0.2,-1,0,0,1024,1024,1024,1024,330.5,0,99,4.29,4.275,4.265,4.268,0,0,6.685,89.6,424.6289745,4.265092,6,P-GPS,
21500,5/3/2019 20:31,-3.251883568,-72.90723693,4.265092,424.6289745,0,2.001761875,21,5,17.094,424.6289745,4.265092,2.684328,3.475951555,0,0,0,329.5,-0.1,-0.8,0,0,1024,1024,1024,1024,330.5,0,99,4.289,4.274,4.264,4.267,0,0,6.856,89.6,424.6289745,4.265092,6,P-GPS,
21600,5/3/2019 20:31,-3.251883484,-72.90723692,4.265092,424.6289745,0,2.00912408,21,5,17.094,424.6289745,4.265092,2.684328,3.475951555,0,0,0,329.5,-0.2,-1,0,0,1024,1024,1024,1024,330.5,0,99,4.289,4.274,4.264,4.267,0,0,6.856,89.6,424.6289745,4.265092,6,P-GPS,
21700,5/3/2019 20:31,-3.25188351,-72.90723694,4.265092,424.6289745,0,2.013789435,21,5,17.094,424.6289745,4.265092,2.684328,3.475951555,0,0,0,329.4,-0.5,-1.2,0,0,1024,1024,1024,1024,330.5,0,99,4.289,4.274,4.264,4.267,0,0,6.856,89.6,424.6289745,4.265092,6,P-GPS,
21800,5/3/2019 20:31,-3.251883468,-72.90723682,4.265092,424.6289745,0,1.978914105,21,5,17.094,424.6289745,4.265092,2.684328,3.475951555,0,0,0,329.5,-0.7,-1,0,0,1024,1024,1024,1024,330.5,0,99,4.289,4.274,4.264,4.267,0,0,6.856,89.6,424.6289745,4.265092,6,P-GPS,
21900,5/3/2019 20:31,-3.251883508,-72.90723682,4.265092,424.6289745,0,1.974836021,21,5,17.094,424.6289745,4.265092,2.684328,3.475951555,0,0,0,329.5,-1.1,-0.9,0,0,1024,1024,1024,1024,330.5,0,99,4.289,4.274,4.264,4.267,0,0,6.856,89.6,424.6289745,4.265092,6,P-GPS,
22000,5/3/2019 20:31,-3.251883547,-72.90723691,4.265092,424.6289745,0,1.995416731,21,5,17.094,424.6289745,4.265092,2.684328,3.475951555,0,0,0,329.5,-1.5,-1.1,0,0,1024,1024,1024,1024,330.5,0,99,4.289,4.274,4.264,4.267,0,0,6.856,89.6,424.6289745,4.265092,6,P-GPS,
22100,5/3/2019 20:31,-3.251883585,-72.90723691,4.265092,424.6289745,0,1.991404263,20,5,17.094,424.6289745,4.265092,2.684328,3.475951555,0,0,0,329.5,-1.6,-1.4,0,0,1024,1024,1024,1024,330.5,0,99,4.289,4.274,4.264,4.267,0,0,6.856,89.6,424.6289745,4.265092,6,P-GPS,
