time(millisecond),datetime(utc),latitude,longitude,height_above_takeoff(feet),altitude_above_seaLevel(feet),speed(mph),distance(feet),satellites,gpslevel,voltage(v),max_altitude(feet),max_ascent(feet),max_speed(mph),max_distance(feet), xSpeed(mph), ySpeed(mph), zSpeed(mph), compass_heading(degrees), pitch(degrees), roll(degrees),isPhoto,isVideo,rc_elevator,rc_aileron,rc_throttle,rc_rudder,gimbal_heading(degrees),gimbal_pitch(degrees),battery_percent,voltageCell1,voltageCell2,voltageCell3,voltageCell4,voltageCell5,voltageCell6,current(A),battery_temperature(f),altitude(feet),ascent(feet),flycStateRaw,flycState,message
0,5/2/2019 19:26,-3.251885393,-72.90724194,0,420.3573245,0,0,16,5,0,420.3573245,0,0,0,0,0,0,352.8,2.6,-0.7,0,0,1024,1024,1024,1024,352.9,0,99,4.314,4.315,4.318,4.32,0,0,0,90.68,420.3573245,0,41,Motors_Started,
100,5/2/2019 19:26,-3.251885406,-72.90724199,0,420.3573245,0,0.018568537,16,5,0,420.3573245,0,0,0.018568537,0,0,0,352.8,2.6,-0.7,0,0,1024,1024,1024,1024,352.9,0,99,4.314,4.315,4.318,4.32,0,0,0,90.68,420.3573245,0,41,Motors_Started,
200,5/2/2019 19:26,-3.251885524,-72.90724204,0,420.3573245,0,0.058497705,16,5,0,420.3573245,0,0,0.058497705,0,0,0,352.8,2.6,-0.7,0,0,1024,1024,1024,1024,352.9,0,99,4.314,4.315,4.318,4.32,0,0,0,90.68,420.3573245,0,41,Motors_Started,
300,5/2/2019 19:26,-3.251885547,-72.90724208,0,420.3573245,0,0.076163716,16,5,0,420.3573245,0,0,0.076163716,0,0,0,352.8,2.6,-0.7,0,0,1024,1024,1024,1024,352.9,0,99,4.314,4.315,4.318,4.32,0,0,0,90.68,420.3573245,0,41,Motors_Started,Setting new Return-To-Home altitude to 30m (98 ft). Data Recorder File Index is 22. Setting new Maximum Flight Altitude to 300m (984 ft)
400,5/2/2019 19:26,-3.251885499,-72.90724212,0,420.3573245,0,0.076339897,16,5,0,420.3573245,0,0,0.076339897,0,0,0,352.8,2.6,-0.7,0,0,1024,1024,1024,1024,352.9,0,99,4.314,4.315,4.318,4.32,0,0,0,90.68,420.3573245,0,41,Motors_Started,
500,5/2/2019 19:26,-3.251885516,-72.90724217,0,420.3573245,0,0.09357251,16,5,0,420.3573245,0,0,0.09357251,0,0,0,352.8,2.6,-0.7,0,0,1024,1024,1024,1024,352.9,0,99,4.314,4.315,4.318,4.32,0,0,0,90.68,420.3573245,0,41,Motors_Started,
600,5/2/2019 19:26,-3.251885482,-72.90724222,0,420.3573245,0,0.106525266,16,5,0,420.3573245,0,0,0.106525266,0,0,0,352.8,2.6,-0.7,0,0,1024,1024,1024,1024,352.9,0,99,4.314,4.315,4.318,4.32,0,0,0,90.68,420.3573245,0,41,Motors_Started,
700,5/2/2019 19:26,-3.251885493,-72.90724226,0,420.3573245,0,0.122521329,16,5,0,420.3573245,0,0,0.122521329,0,0,0,352.8,2.6,-0.7,0,0,1024,1024,1024,1024,352.9,0,99,4.314,4.315,4.318,4.32,0,0,0,90.68,420.3573245,0,41,Motors_Started,
800,5/2/2019 19:26,-3.25188561,-72.90724232,0,420.3573245,0,0.157291016,16,5,0,420.3573245,0,0,0.157291016,0,0,0,352.8,2.6,-0.7,0,0,1024,1024,1024,1024,352.9,0,99,4.314,4.315,4.318,4.32,0,0,0,90.68,420.3573245,0,41,Motors_Started,
900,5/2/2019 19:26,-3.251885632,-72.90724236,0,420.3573245,0,0.174054139,16,5,17.267,420.3573245,0,0,0.174054139,0,0,0,352.8,2.6,-0.7,0,0,1024,1024,1024,1024,352.9,0,99,4.314,4.315,4.318,4.32,0,0,4.887,90.68,420.3573245,0,41,Motors_Started,
1000,5/2/2019 19:26,-3.251885591,-72.90724227,0,420.3573245,0,0.138321199,16,5,17.267,420.3573245,0,0,0.174054139,0,0,0,352.8,2.6,-0.7,0,0,1024,1024,1024,1024,352.9,0,99,4.314,4.315,4.318,4.32,0,0,4.887,90.68,420.3573245,0,41,Motors_Started,
1100,5/2/2019 19:26,-3.251885608,-72.90724229,0,420.3573245,0,0.149301514,16,5,17.267,420.3573245,0,0,0.174054139,0,0,0,352.7,2.5,-0.6,0,0,1024,1024,1024,1024,352.9,0,99,4.314,4.315,4.318,4.32,0,0,4.887,90.68,420.3573245,0,41,Motors_Started,
1200,5/2/2019 19:26,-3.251885716,-72.90724237,0,420.3573245,0,0.194493773,16,5,17.267,420.3573245,0,0,0.194493773,0,0,0,352.6,2.5,-0.6,0,0,1024,1024,1024,1024,352.9,0,99,4.314,4.315,4.318,4.32,0,0,4.887,90.68,420.3573245,0,11,AutoTakeoff,
1300,5/2/2019 19:26,-3.251885733,-72.9072424,0,420.3573245,0,0.207153878,16,5,17.267,420.3573245,0,0,0.207153878,0,0,0,352.5,2.4,-0.6,0,0,1024,1024,1024,1024,352.9,0,99,4.314,4.315,4.318,4.32,0,0,4.887,90.68,420.3573245,0,11,AutoTakeoff,
1400,5/2/2019 19:26,-3.25188569,-72.90724248,0,420.3573245,0,0.224732947,16,5,17.267,420.3573245,0,0,0.224732947,0,0,0,352.4,2.5,-0.6,0,0,1024,1024,1024,1024,352.9,0,99,4.314,4.315,4.318,4.32,0,0,4.887,90.68,420.3573245,0,11,AutoTakeoff,
1500,5/2/2019 19:26,-3.251885707,-72.90724252,0,420.3573245,0,0.237996399,16,5,17.267,420.3573245,0,0,0.237996399,0,0,0,352.5,2.4,-0.7,0,0,1024,1024,1024,1024,352.9,0,99,4.314,4.315,4.318,4.32,0,0,4.887,90.68,420.3573245,0,11,AutoTakeoff,
1600,5/2/2019 19:26,-3.251885685,-72.90724259,0,420.3573245,0,0.259881898,16,5,17.267,420.3573245,0,0,0.259881898,0,0,0,352.5,2.4,-0.6,0,0,1024,1024,1024,1024,352.9,0,99,4.314,4.315,4.318,4.32,0,0,4.887,90.68,420.3573245,0,11,AutoTakeoff,
1700,5/2/2019 19:26,-3.251885699,-72.90724263,0,420.3573245,0,0.274000665,16,5,17.267,420.3573245,0,0,0.274000665,0,0,0,352.5,2.4,-0.6,0,0,1024,1024,1024,1024,352.9,0,99,4.314,4.315,4.318,4.32,0,0,4.887,90.68,420.3573245,0,11,AutoTakeoff,
1800,5/2/2019 19:26,-3.251885811,-72.9072427,0,420.3573245,0,0.315914052,16,5,17.267,420.3573245,0,0,0.315914052,0,0,0,352.3,2.2,-0.6,0,0,1024,1024,1024,1024,352.9,0,99,4.314,4.315,4.318,4.32,0,0,4.887,90.68,420.3573245,0,11,AutoTakeoff,
1900,5/2/2019 19:26,-3.251885829,-72.90724274,0,420.3573245,0,0.329767071,16,5,17.267,420.3573245,0,0,0.329767071,0,0,0,352,-0.9,-0.5,0,0,1024,1024,1024,1024,352.9,0,99,4.314,4.315,4.318,4.32,0,0,4.887,90.68,420.3573245,0,11,AutoTakeoff,
2000,5/2/2019 19:26,-3.251885767,-72.90724266,0,420.3573245,0,0.293729668,16,5,17.259,420.3573245,0,0,0.329767071,0,0,-0.223694,352.5,-5,-0.4,0,0,1024,1024,1024,1024,352.9,0,99,4.314,4.314,4.315,4.315,0,0,4.475,90.86,420.3573245,0,11,AutoTakeoff,
2100,5/2/2019 19:26,-3.251885697,-72.90724269,0,420.3573245,0.223694,0.295336296,16,5,17.259,420.3573245,0,0.223694,0.329767071,0.223694,0,-0.447388,352.7,-3.5,0.1,0,0,1024,1024,1024,1024,352.9,0,99,4.314,4.314,4.315,4.315,0,0,4.475,90.86,420.3573245,0,11,AutoTakeoff,
2200,5/2/2019 19:26,-3.251885527,-72.9072428,0,420.3573245,0.223694,0.31597606,16,5,17.259,420.3573245,0,0.223694,0.329767071,0.223694,0,-0.894776,352.6,-0.1,0.2,0,0,1024,1024,1024,1024,352.9,0,99,4.314,4.314,4.315,4.315,0,0,4.475,90.86,420.3573245,0,11,AutoTakeoff,
2300,5/2/2019 19:26,-3.251885375,-72.90724283,0.328084,420.6854085,0.223694,0.324281178,16,5,17.259,420.6854085,0.328084,0.223694,0.329767071,0.223694,0,-0.894776,352.6,1.8,0.2,0,0,1024,1024,1024,1024,352.9,0,99,4.314,4.314,4.315,4.315,0,0,4.475,90.86,420.6854085,0.328084,11,AutoTakeoff,
2400,5/2/2019 19:26,-3.251885223,-72.90724289,0.328084,420.6854085,0.223694,0.349701455,16,5,17.259,420.6854085,0.328084,0.223694,0.349701455,0.223694,0,-0.894776,352.4,2,0,0,0,1024,1024,1024,1024,352.9,0,99,4.314,4.314,4.315,4.315,0,0,4.475,90.86,420.6854085,0.328084,11,AutoTakeoff,Home Point Recorded. RTH Altitude:  30m.
2500,5/2/2019 19:26,-3.251885111,-72.90724288,0.328084,420.6854085,0.223694,0.357224421,16,5,17.259,420.6854085,0.328084,0.223694,0.357224421,0.223694,0,-0.894776,352.5,1.7,-0.4,0,0,1024,1024,1024,1024,352.9,0,99,4.314,4.314,4.315,4.315,0,0,4.475,90.86,420.6854085,0.328084,11,AutoTakeoff,
2600,5/2/2019 19:26,-3.251884981,-72.90724303,0.656168,421.0134925,0.223694,0.422119436,16,5,17.259,421.0134925,0.656168,0.223694,0.422119436,0.223694,0,-0.894776,352.4,2,-0.9,0,0,1024,1024,1024,1024,352.9,0,99,4.314,4.314,4.315,4.315,0,0,4.475,90.86,421.0134925,0.656168,11,AutoTakeoff,
2700,5/2/2019 19:26,-3.251884901,-72.90724302,0.656168,421.0134925,0,0.430213268,16,5,17.259,421.0134925,0.656168,0.223694,0.430213268,0,0,-0.894776,352.5,1.7,-1.6,0,0,1024,1024,1024,1024,352.9,0,99,4.314,4.314,4.315,4.315,0,0,4.475,90.86,421.0134925,0.656168,11,AutoTakeoff,
2800,5/2/2019 19:26,-3.251885207,-72.90724281,0.984252,421.3415765,0,0.321713265,16,5,17.259,421.3415765,0.984252,0.223694,0.430213268,0,0,-0.894776,352.4,1.6,-2.1,0,0,1024,1024,1024,1024,352.9,0,99,4.314,4.314,4.315,4.315,0,0,4.475,90.86,421.3415765,0.984252,11,AutoTakeoff,
2900,5/2/2019 19:26,-3.251885192,-72.90724279,0.984252,421.3415765,0,0.317423239,16,5,17.259,421.3415765,0.984252,0.223694,0.430213268,0,0,-0.894776,352.5,1.3,-2.3,0,0,1024,1024,1024,1024,352.9,0,99,4.314,4.314,4.315,4.315,0,0,4.475,90.86,421.3415765,0.984252,11,AutoTakeoff,
3000,5/2/2019 19:26,-3.251885064,-72.90724272,1.312336,421.6696605,0,0.306773304,16,5,17.156,421.6696605,1.312336,0.223694,0.430213268,0,0,-0.894776,352.5,1.2,-2.1,0,0,1024,1024,1024,1024,352.9,0,99,4.286,4.288,4.29,4.293,0,0,7.031,90.86,421.6696605,1.312336,11,AutoTakeoff,
3100,5/2/2019 19:26,-3.25188506,-72.90724274,1.312336,421.6696605,0,0.314443252,16,5,17.156,421.6696605,1.312336,0.223694,0.430213268,0,0,-0.894776,352.5,1.6,-0.9,0,0,1024,1024,1024,1024,352.9,0,99,4.286,4.288,4.29,4.293,0,0,7.031,90.86,421.6696605,1.312336,11,AutoTakeoff,
3200,5/2/2019 19:26,-3.251885302,-72.9072427,1.64042,421.9977445,0,0.278160114,16,5,17.156,421.9977445,1.64042,0.223694,0.430213268,0,0,-0.894776,352.5,1.4,-0.6,0,0,1024,1024,1024,1024,352.9,0,99,4.286,4.288,4.29,4.293,0,0,7.031,90.86,421.9977445,1.64042,11,AutoTakeoff,
3300,5/2/2019 19:26,-3.25188533,-72.90724272,1.64042,421.9977445,0,0.28361976,16,5,17.156,421.9977445,1.64042,0.223694,0.430213268,0,0,-0.894776,352.6,1.6,-0.2,0,0,1024,1024,1024,1024,352.9,0,99,4.286,4.288,4.29,4.293,0,0,7.031,90.86,421.9977445,1.64042,11,AutoTakeoff,
3400,5/2/2019 19:26,-3.251885192,-72.90724244,1.968504,422.3258285,0,0.194691935,16,5,17.156,422.3258285,1.968504,0.223694,0.430213268,0,0,-0.894776,352.6,1.7,-0.1,0,0,1024,1024,1024,1024,352.9,0,99,4.286,4.288,4.29,4.293,0,0,7.031,90.86,422.3258285,1.968504,11,AutoTakeoff,
3500,5/2/2019 19:26,-3.251885223,-72.9072424,1.968504,422.3258285,0,0.179246069,16,5,17.156,422.3258285,1.968504,0.223694,0.430213268,0,0,-0.894776,352.6,1.7,-0.7,0,0,1024,1024,1024,1024,352.9,0,99,4.286,4.288,4.29,4.293,0,0,7.031,90.86,422.3258285,1.968504,11,AutoTakeoff,
3600,5/2/2019 19:26,-3.251885378,-72.9072421,2.296588,422.6539125,0,0.0562418,16,5,17.156,422.6539125,2.296588,0.223694,0.430213268,0,0,-1.11847,352.7,1.3,-0.6,0,0,1024,1024,1024,1024,352.8,0,99,4.286,4.288,4.29,4.293,0,0,7.031,90.86,422.6539125,2.296588,11,AutoTakeoff,
3700,5/2/2019 19:26,-3.251885435,-72.90724202,2.296588,422.6539125,0,0.030379529,16,5,17.156,422.6539125,2.296588,0.223694,0.430213268,0,0,-1.11847,352.6,0.9,-1.1,0,0,1024,1024,1024,1024,352.8,0,99,4.286,4.288,4.29,4.293,0,0,7.031,90.86,422.6539125,2.296588,11,AutoTakeoff,
3800,5/2/2019 19:26,-3.251885532,-72.90724192,2.624672,422.9819965,0,0.051290684,16,5,17.156,422.9819965,2.624672,0.223694,0.430213268,0,0,-1.11847,352.5,0.9,-0.9,0,0,1024,1024,1024,1024,352.8,0,99,4.286,4.288,4.29,4.293,0,0,7.031,90.86,422.9819965,2.624672,11,AutoTakeoff,
3900,5/2/2019 19:26,-3.251885585,-72.90724182,2.624672,422.9819965,0,0.082821853,16,5,17.156,422.9819965,2.624672,0.223694,0.430213268,0,0,-1.11847,352.4,1.1,-1.5,0,0,1024,1024,1024,1024,352.8,0,99,4.286,4.288,4.29,4.293,0,0,7.031,90.86,422.9819965,2.624672,11,AutoTakeoff,
4000,5/2/2019 19:26,-3.251885471,-72.90724179,2.952756,423.3100805,0,0.061942587,15,5,17.144,423.3100805,2.952756,0.223694,0.430213268,0,0,-1.11847,352.3,1.5,-1.7,0,0,1024,1024,1024,1024,352.8,0,99,4.282,4.284,4.287,4.29,0,0,7.116,90.86,423.3100805,2.952756,11,AutoTakeoff,
4100,5/2/2019 19:26,-3.251885507,-72.9072417,2.952756,423.3100805,0,0.098328415,15,5,17.144,423.3100805,2.952756,0.223694,0.430213268,0,0,-0.894776,352.3,1.9,-1.7,0,0,1024,1024,1024,1024,352.8,0,99,4.282,4.284,4.287,4.29,0,0,7.116,90.86,423.3100805,2.952756,11,AutoTakeoff,
4200,5/2/2019 19:26,-3.25188557,-72.90724185,3.28084,423.6381645,0,0.072122706,14,5,17.144,423.6381645,3.28084,0.223694,0.430213268,0,0,-0.894776,352.2,1.8,-2.2,0,0,1024,1024,1024,1024,352.8,0,99,4.282,4.284,4.287,4.29,0,0,7.116,90.86,423.6381645,3.28084,11,AutoTakeoff,
4300,5/2/2019 19:26,-3.251885617,-72.90724179,3.28084,423.6381645,0,0.098152562,14,5,17.144,423.6381645,3.28084,0.223694,0.430213268,0,0,-0.894776,352.1,1.9,-1.9,0,0,1024,1024,1024,1024,352.8,0,99,4.282,4.284,4.287,4.29,0,0,7.116,90.86,423.6381645,3.28084,6,P-GPS,
4400,5/2/2019 19:26,-3.25188556,-72.90724166,3.608924,423.9662485,0,0.120986881,16,5,17.144,423.9662485,3.608924,0.223694,0.430213268,0,0,-0.894776,352.1,2.2,-1.9,0,0,1024,1024,1024,1024,352.8,0,99,4.282,4.284,4.287,4.29,0,0,7.116,90.86,423.9662485,3.608924,6,P-GPS,
4500,5/2/2019 19:26,-3.251885612,-72.90724159,3.608924,423.9662485,0,0.150541671,16,5,17.144,423.9662485,3.608924,0.223694,0.430213268,0,0,-0.447388,352,2.1,-1.6,0,0,1024,1024,1024,1024,352.8,0,99,4.282,4.284,4.287,4.29,0,0,7.116,90.86,423.9662485,3.608924,6,P-GPS,
4600,5/2/2019 19:26,-3.251885286,-72.90724173,3.608924,423.9662485,0,0.08571621,16,5,17.144,423.9662485,3.608924,0.223694,0.430213268,0,0,-0.223694,351.9,1.6,-1.5,0,0,1024,1024,1024,1024,352.8,0,99,4.282,4.284,4.287,4.29,0,0,7.116,90.86,423.9662485,3.608924,6,P-GPS,
4700,5/2/2019 19:26,-3.251885309,-72.90724168,3.608924,423.9662485,0,0.100420607,16,5,17.144,423.9662485,3.608924,0.223694,0.430213268,0,0,0,352,1.3,-1.6,0,0,1024,1024,1024,1024,352.8,0,99,4.282,4.284,4.287,4.29,0,0,7.116,90.86,423.9662485,3.608924,6,P-GPS,
4800,5/2/2019 19:26,-3.251885281,-72.90724147,3.608924,423.9662485,0,0.178506239,16,5,17.144,423.9662485,3.608924,0.223694,0.430213268,0,0,0,352,1.2,-2,0,0,1024,1024,1024,1024,352.8,0,99,4.282,4.284,4.287,4.29,0,0,7.116,90.86,423.9662485,3.608924,6,P-GPS,
4900,5/2/2019 19:26,-3.251885281,-72.9072414,3.608924,423.9662485,0,0.203083668,16,5,17.144,423.9662485,3.608924,0.223694,0.430213268,0,0,0,352,1.5,-2.1,0,0,1024,1024,1024,1024,352.8,0,99,4.282,4.284,4.287,4.29,0,0,7.116,90.86,423.9662485,3.608924,6,P-GPS,
5000,5/2/2019 19:26,-3.251885225,-72.90724152,3.608924,423.9662485,0,0.166481633,16,5,17.144,423.9662485,3.608924,0.223694,0.430213268,0,0,0,352,2,-2.2,0,0,1024,1024,1024,1024,352.8,0,99,4.282,4.284,4.287,4.29,0,0,7.116,90.86,423.9662485,3.608924,6,P-GPS,
5100,5/2/2019 19:26,-3.251885216,-72.90724148,3.608924,423.9662485,0,0.179020675,16,5,17.152,423.9662485,3.608924,0.223694,0.430213268,0,0,0,352,2.3,-1.8,0,0,1024,1024,1024,1024,352.8,0,99,4.286,4.287,4.288,4.291,0,0,6.573,90.86,423.9662485,3.608924,6,P-GPS,
5200,5/2/2019 19:26,-3.25188521,-72.90724147,3.608924,423.9662485,0,0.184933077,16,5,17.152,423.9662485,3.608924,0.223694,0.430213268,0,0,0,352.1,2.4,-1.3,0,0,1024,1024,1024,1024,352.8,0,99,4.286,4.287,4.288,4.291,0,0,6.573,90.86,423.9662485,3.608924,6,P-GPS,
5300,5/2/2019 19:26,-3.251885216,-72.90724144,3.608924,423.9662485,0,0.193346791,16,5,17.152,423.9662485,3.608924,0.223694,0.430213268,0,0,0,352.1,2.5,-0.9,0,0,1024,1024,1024,1024,352.8,0,99,4.286,4.287,4.288,4.291,0,0,6.573,90.86,423.9662485,3.608924,6,P-GPS,
5400,5/2/2019 19:26,-3.251885118,-72.90724137,3.608924,423.9662485,0,0.230144364,16,5,17.152,423.9662485,3.608924,0.223694,0.430213268,0,0,0,352.1,2,-1.4,0,0,1024,1024,1024,1024,352.8,0,99,4.286,4.287,4.288,4.291,0,0,6.573,90.86,423.9662485,3.608924,6,P-GPS,
5500,5/2/2019 19:26,-3.25188513,-72.90724132,3.608924,423.9662485,0,0.244885507,16,5,17.152,423.9662485,3.608924,0.223694,0.430213268,0,0,0,352.1,1.5,-1.3,0,0,1024,1024,1024,1024,352.8,0,99,4.286,4.287,4.288,4.291,0,0,6.573,90.86,423.9662485,3.608924,6,P-GPS,
5600,5/2/2019 19:26,-3.251885165,-72.90724121,3.608924,423.9662485,0,0.278188001,16,5,17.152,423.9662485,3.608924,0.223694,0.430213268,0,0,0,352.3,1.1,-1.5,0,0,1024,1024,1024,1024,352.8,0,99,4.286,4.287,4.288,4.291,0,0,6.573,90.86,423.9662485,3.608924,6,P-GPS,
5700,5/2/2019 19:26,-3.251885168,-72.90724115,3.608924,423.9662485,0,0.299096138,16,5,17.152,423.9662485,3.608924,0.223694,0.430213268,0,0,0,352.2,1.1,-2,0,0,1024,1024,1024,1024,352.8,0,99,4.286,4.287,4.288,4.291,0,0,6.573,90.86,423.9662485,3.608924,6,P-GPS,
5800,5/2/2019 19:26,-3.251885277,-72.90724109,3.608924,423.9662485,0,0.312836624,16,5,17.152,423.9662485,3.608924,0.223694,0.430213268,0,0,0,352.2,1.3,-2.2,0,0,1024,1024,1024,1024,352.8,0,99,4.286,4.287,4.288,4.291,0,0,6.573,90.86,423.9662485,3.608924,6,P-GPS,
5900,5/2/2019 19:26,-3.251885274,-72.90724104,3.608924,423.9662485,0,0.331387806,16,5,17.152,423.9662485,3.608924,0.223694,0.430213268,0,0,0,352.1,1.7,-1.9,0,0,1024,1024,1024,1024,352.8,0,99,4.286,4.287,4.288,4.291,0,0,6.573,90.86,423.9662485,3.608924,6,P-GPS,
6000,5/2/2019 19:26,-3.251885219,-72.90724118,3.608924,423.9662485,0,0.286519366,16,5,17.152,423.9662485,3.608924,0.223694,0.430213268,0,0,0,352,2,-1.7,0,0,1024,1024,1024,1024,352.8,0,99,4.286,4.287,4.288,4.291,0,0,6.573,90.86,423.9662485,3.608924,6,P-GPS,
6100,5/2/2019 19:26,-3.251885212,-72.90724116,3.608924,423.9662485,0,0.292472778,16,5,17.129,423.9662485,3.608924,0.223694,0.430213268,0,0,0,352,2.1,-1,0,0,1024,1024,1024,1024,352.8,0,99,4.277,4.279,4.282,4.285,0,0,6.911,90.86,423.9662485,3.608924,6,P-GPS,
6200,5/2/2019 19:26,-3.251885217,-72.90724111,3.608924,423.9662485,0,0.308712608,16,5,17.129,423.9662485,3.608924,0.223694,0.430213268,0,0,0,352.1,1.8,-0.6,0,0,1024,1024,1024,1024,352.8,0,99,4.277,4.279,4.282,4.285,0,0,6.911,90.86,423.9662485,3.608924,6,P-GPS,
6300,5/2/2019 19:26,-3.25188522,-72.90724108,3.608924,423.9662485,0,0.31931005,16,5,17.129,423.9662485,3.608924,0.223694,0.430213268,0,0,0,352,1.4,-0.4,0,0,1024,1024,1024,1024,352.8,0,99,4.277,4.279,4.282,4.285,0,0,6.911,90.86,423.9662485,3.608924,6,P-GPS,
6400,5/2/2019 19:26,-3.251885388,-72.90724096,3.608924,423.9662485,0,0.359012479,16,5,17.129,423.9662485,3.608924,0.223694,0.430213268,0,0,0,352.2,1.2,-0.9,0,0,1024,1024,1024,1024,352.8,0,99,4.277,4.279,4.282,4.285,0,0,6.911,90.86,423.9662485,3.608924,6,P-GPS,
6500,5/2/2019 19:26,-3.251885403,-72.90724089,3.608924,423.9662485,0,0.383877965,16,5,17.129,423.9662485,3.608924,0.223694,0.430213268,0,0,0,352.3,1.3,-1.5,0,0,1024,1024,1024,1024,352.8,0,99,4.277,4.279,4.282,4.285,0,0,6.911,90.86,423.9662485,3.608924,6,P-GPS,
6600,5/2/2019 19:26,-3.251885373,-72.90724092,3.608924,423.9662485,0,0.37459975,16,5,17.129,423.9662485,3.608924,0.223694,0.430213268,0,0,0,352.3,1.6,-1.9,0,0,1024,1024,1024,1024,352.8,0,99,4.277,4.279,4.282,4.285,0,0,6.911,90.86,423.9662485,3.608924,6,P-GPS,
6700,5/2/2019 19:26,-3.251885381,-72.90724085,3.608924,423.9662485,0,0.396673241,16,5,17.129,423.9662485,3.608924,0.223694,0.430213268,0,0,0,352.3,1.5,-1.8,0,0,1024,1024,1024,1024,352.8,0,99,4.277,4.279,4.282,4.285,0,0,6.911,90.86,423.9662485,3.608924,6,P-GPS,
6800,5/2/2019 19:26,-3.251885502,-72.90724081,3.608924,423.9662485,0,0.413769698,16,5,17.129,423.9662485,3.608924,0.223694,0.430213268,0,0,0,352.2,1.2,-1.8,0,0,1024,1024,1024,1024,352.8,0,99,4.277,4.279,4.282,4.285,0,0,6.911,90.86,423.9662485,3.608924,6,P-GPS,
6900,5/2/2019 19:26,-3.251885529,-72.90724077,3.608924,423.9662485,0,0.430580722,16,5,17.129,423.9662485,3.608924,0.223694,0.430580722,0,0,0,352.2,1.2,-1.5,0,0,1024,1024,1024,1024,352.8,0,99,4.277,4.279,4.282,4.285,0,0,6.911,90.86,423.9662485,3.608924,6,P-GPS,
7000,5/2/2019 19:26,-3.251885505,-72.90724076,3.608924,423.9662485,0,0.433205394,16,5,17.129,423.9662485,3.608924,0.223694,0.433205394,0,0,0,352.2,1.2,-1.2,0,0,1024,1024,1264,1024,352.8,0,99,4.277,4.279,4.282,4.285,0,0,6.911,90.86,423.9662485,3.608924,6,P-GPS,
7100,5/2/2019 19:26,-3.251885524,-72.90724073,3.608924,423.9662485,0,0.444032166,16,5,17.129,423.9662485,3.608924,0.223694,0.444032166,0,0,0,352.1,1.7,-0.6,0,0,1024,1024,1146,1024,352.8,0,99,4.277,4.279,4.282,4.285,0,0,6.911,90.86,423.9662485,3.608924,6,P-GPS,
7200,5/2/2019 19:26,-3.251885632,-72.90724083,3.608924,423.9662485,0,0.414343845,16,5,17.112,423.9662485,3.608924,0.223694,0.444032166,0,0,0,352.1,1.5,-0.1,0,0,1024,1024,1024,1024,352.8,0,99,4.274,4.276,4.279,4.283,0,0,7.023,91.04,423.9662485,3.608924,6,P-GPS,
7300,5/2/2019 19:26,-3.25188567,-72.9072408,3.608924,423.9662485,0,0.429173242,16,5,17.112,423.9662485,3.608924,0.223694,0.444032166,0,0,-0.447388,352.1,1.3,0,0,0,1024,1024,1024,1024,352.8,0,99,4.274,4.276,4.279,4.283,0,0,7.023,91.04,423.9662485,3.608924,6,P-GPS,
7400,5/2/2019 19:26,-3.251885775,-72.90724066,3.608924,423.9662485,0,0.48908138,16,5,17.112,423.9662485,3.608924,0.223694,0.48908138,0,0,-0.223694,352.2,1.4,-0.3,0,0,1024,1024,1307,1024,352.8,0,99,4.274,4.276,4.279,4.283,0,0,7.023,91.04,423.9662485,3.608924,6,P-GPS,
7500,5/2/2019 19:26,-3.25188582,-72.90724058,3.608924,423.9662485,0,0.520288731,16,5,17.112,423.9662485,3.608924,0.223694,0.520288731,0,0,0,352.1,1.4,-0.8,0,0,1024,1024,1140,1024,352.8,0,99,4.274,4.276,4.279,4.283,0,0,7.023,91.04,423.9662485,3.608924,6,P-GPS,
7600,5/2/2019 19:26,-3.251885894,-72.90724045,3.608924,423.9662485,0,0.574291357,16,5,17.112,423.9662485,3.608924,0.223694,0.574291357,0,0,0,352.1,1.1,-1.2,0,0,1024,1024,1074,1024,352.8,0,99,4.274,4.276,4.279,4.283,0,0,7.023,91.04,423.9662485,3.608924,6,P-GPS,
7700,5/2/2019 19:26,-3.251885945,-72.90724036,3.937008,424.2943325,0,0.611817605,16,5,17.112,424.2943325,3.937008,0.223694,0.611817605,0,0,-0.671082,352.2,0.7,-0.8,0,0,1024,1024,1415,1024,352.8,0,99,4.274,4.276,4.279,4.283,0,0,7.023,91.04,424.2943325,3.937008,6,P-GPS,
7800,5/2/2019 19:26,-3.251885995,-72.90724032,3.937008,424.2943325,0,0.631889784,16,5,17.112,424.2943325,3.937008,0.223694,0.631889784,0,0,-0.447388,352.3,1.1,-1.5,0,0,1024,1024,1024,1024,352.8,0,99,4.274,4.276,4.279,4.283,0,0,7.023,91.04,424.2943325,3.937008,6,P-GPS,
7900,5/2/2019 19:26,-3.251886032,-72.90724022,3.937008,424.2943325,0,0.668133223,16,5,17.112,424.2943325,3.937008,0.223694,0.668133223,0,0,-0.447388,352.4,1.1,-2,0,0,1024,1024,1174,1024,352.8,0,99,4.274,4.276,4.279,4.283,0,0,7.023,91.04,424.2943325,3.937008,6,P-GPS,
8000,5/2/2019 19:26,-3.25188607,-72.9072404,3.937008,424.2943325,0,0.613238209,16,5,17.112,424.2943325,3.937008,0.223694,0.668133223,0,0,-0.671082,352.4,1.1,-1.6,0,0,1024,1024,1338,1024,352.8,0,99,4.274,4.276,4.279,4.283,0,0,7.023,91.04,424.2943325,3.937008,6,P-GPS,
8100,5/2/2019 19:26,-3.251886108,-72.90724037,4.265092,424.6224165,0,0.630551201,16,5,17.112,424.6224165,4.265092,0.223694,0.668133223,0,0,-0.223694,352.2,1.6,-1.3,0,0,1024,1024,1024,1024,352.8,0,99,4.274,4.276,4.279,4.283,0,0,7.023,91.04,424.6224165,4.265092,6,P-GPS,
8200,5/2/2019 19:26,-3.251886323,-72.90724039,4.265092,424.6224165,0,0.659944247,16,5,17.232,424.6224165,4.265092,0.223694,0.668133223,0,0,-0.447388,352.2,1.4,-1.1,0,0,1024,1024,1024,1024,352.8,0,99,4.288,4.316,4.321,4.307,0,0,7.593,91.04,424.6224165,4.265092,6,P-GPS,
8300,5/2/2019 19:26,-3.251886385,-72.90724037,4.265092,424.6224165,0,0.676391098,16,5,17.232,424.6224165,4.265092,0.223694,0.676391098,0,0,-0.447388,352.1,1.4,-0.6,0,0,1024,1024,1326,1024,352.8,0,99,4.288,4.316,4.321,4.307,0,0,7.593,91.04,424.6224165,4.265092,6,P-GPS,
8400,5/2/2019 19:26,-3.25188615,-72.90724033,4.265092,424.6224165,0,0.650771018,16,5,17.232,424.6224165,4.265092,0.223694,0.676391098,0,0,-0.223694,352.1,1.6,-0.4,0,0,1024,1024,1024,1024,352.8,0,99,4.288,4.316,4.321,4.307,0,0,7.593,91.04,424.6224165,4.265092,6,P-GPS,
8500,5/2/2019 19:26,-3.251886191,-72.9072403,4.265092,424.6224165,0,0.665826793,16,5,17.232,424.6224165,4.265092,0.223694,0.676391098,0,0,0,352.2,1.1,-0.3,0,0,1070,1024,1024,1024,352.8,0,99,4.288,4.316,4.321,4.307,0,0,7.593,91.04,424.6224165,4.265092,6,P-GPS,
8600,5/2/2019 19:26,-3.251886141,-72.90724048,4.593176,424.9505005,0,0.600318261,16,5,17.232,424.9505005,4.593176,0.223694,0.676391098,0,0,-0.447388,352,0.9,-0.3,0,0,1298,1024,1024,1024,352.8,0,99,4.288,4.316,4.321,4.307,0,0,7.593,91.04,424.9505005,4.593176,6,P-GPS,
8700,5/2/2019 19:26,-3.251886173,-72.90724045,4.593176,424.9505005,0,0.613822198,16,5,17.232,424.9505005,4.593176,0.223694,0.676391098,0,0,-0.223694,352,1.2,-0.1,0,0,1470,1024,1024,1024,352.8,0,99,4.288,4.316,4.321,4.307,0,0,7.593,91.04,424.9505005,4.593176,6,P-GPS,
8800,5/2/2019 19:26,-3.25188626,-72.90724042,4.593176,424.9505005,0,0.63929464,16,5,17.232,424.9505005,4.593176,0.223694,0.676391098,0,0,0,352.1,0.4,-0.2,0,0,1406,1024,1024,1024,352.8,0,99,4.288,4.316,4.321,4.307,0,0,7.593,91.04,424.9505005,4.593176,6,P-GPS,
8900,5/2/2019 19:26,-3.251886286,-72.90724036,4.593176,424.9505005,0,0.663061045,16,5,17.232,424.9505005,4.593176,0.223694,0.676391098,0,0,0,352.1,-4.9,-0.7,0,0,1366,1024,1024,1024,352.8,0,99,4.288,4.316,4.321,4.307,0,0,7.593,91.04,424.9505005,4.593176,6,P-GPS,
9000,5/2/2019 19:26,-3.251886268,-72.90724035,4.593176,424.9505005,0.223694,0.66339241,17,5,17.232,424.9505005,4.593176,0.223694,0.676391098,0.223694,0,0,352.4,-9.8,-1.2,0,0,1272,1024,1024,1024,352.8,0,99,4.288,4.316,4.321,4.307,0,0,7.593,91.04,424.9505005,4.593176,6,P-GPS,
9100,5/2/2019 19:26,-3.251886075,-72.90724031,4.593176,424.9505005,0.671082,0.645800546,17,5,17.232,424.9505005,4.593176,0.671082,0.676391098,0.671082,0,0,352.4,-10,-2,0,0,1024,1024,1024,1024,352.8,0,99,4.288,4.316,4.321,4.307,0,0,7.593,91.04,424.9505005,4.593176,6,P-GPS,
9200,5/2/2019 19:26,-3.251885483,-72.90724015,4.593176,424.9505005,1.11847,0.65358926,17,5,17.084,424.9505005,4.593176,1.11847,0.676391098,1.11847,0,0,352.4,-7.6,-2.1,0,0,1024,1024,1024,1024,352.8,0,99,4.269,4.267,4.27,4.276,0,0,6.849,91.22,424.9505005,4.593176,6,P-GPS,
9300,5/2/2019 19:26,-3.251884967,-72.90724017,4.593176,424.9505005,1.342164,0.665131255,17,5,17.084,424.9505005,4.593176,1.342164,0.676391098,1.342164,0,0,352.1,-2.8,-1.7,0,0,1024,1024,1024,1024,352.8,0,99,4.269,4.267,4.27,4.276,0,0,6.849,91.22,424.9505005,4.593176,6,P-GPS,
9400,5/2/2019 19:26,-3.251884345,-72.90724023,4.593176,424.9505005,1.342164,0.731046611,17,5,17.084,424.9505005,4.593176,1.342164,0.731046611,1.342164,0,0,352.1,3.2,-1.4,0,0,1024,1024,1024,1024,352.8,0,99,4.269,4.267,4.27,4.276,0,0,6.849,91.22,424.9505005,4.593176,6,P-GPS,
9500,5/2/2019 19:26,-3.251883783,-72.90724027,4.593176,424.9505005,1.11847,0.846545303,17,5,17.084,424.9505005,4.593176,1.342164,0.846545303,1.11847,0,0,352.5,6,-1.1,0,0,1024,1024,1024,1024,352.8,0,99,4.269,4.267,4.27,4.276,0,0,6.849,91.22,424.9505005,4.593176,6,P-GPS,
9600,5/2/2019 19:26,-3.251883251,-72.90724032,4.593176,424.9505005,1.11847,0.980200163,17,5,17.084,424.9505005,4.593176,1.342164,0.980200163,1.11847,0,0,352.7,6.4,-1.1,0,0,1024,1024,1024,1024,352.8,0,99,4.269,4.267,4.27,4.276,0,0,6.849,91.22,424.9505005,4.593176,6,P-GPS,
9700,5/2/2019 19:26,-3.25188283,-72.90724035,4.593176,424.9505005,0.894776,1.100016439,17,5,17.084,424.9505005,4.593176,1.342164,1.100016439,0.894776,0,0,352.4,6.1,-1,0,0,1024,1024,1024,1024,352.8,0,99,4.269,4.267,4.27,4.276,0,0,6.849,91.22,424.9505005,4.593176,6,P-GPS,
9800,5/2/2019 19:26,-3.251882388,-72.9072407,4.593176,424.9505005,0.671082,1.186361587,17,5,17.084,424.9505005,4.593176,1.342164,1.186361587,0.671082,0,0,352.1,5.4,-1.1,0,0,1024,1024,1024,1024,352.8,0,99,4.269,4.267,4.27,4.276,0,0,6.849,91.22,424.9505005,4.593176,6,P-GPS,
9900,5/2/2019 19:26,-3.251882099,-72.90724076,4.593176,424.9505005,0.447388,1.277362246,17,5,17.084,424.9505005,4.593176,1.342164,1.277362246,0.447388,0,0,352.1,4.8,-0.9,0,0,1024,1024,1024,1024,352.8,0,99,4.269,4.267,4.27,4.276,0,0,6.849,91.22,424.9505005,4.593176,6,P-GPS,
10000,5/2/2019 19:26,-3.251881659,-72.90724062,4.593176,424.9505005,0.447388,1.445626687,16,5,17.084,424.9505005,4.593176,1.342164,1.445626687,0.447388,0,0,352.1,4.3,-0.6,0,0,1024,1024,1024,1024,352.8,0,99,4.269,4.267,4.27,4.276,0,0,6.849,91.22,424.9505005,4.593176,6,P-GPS,
10100,5/2/2019 19:26,-3.251881464,-72.90724065,4.593176,424.9505005,0.223694,1.508982988,16,5,17.084,424.9505005,4.593176,1.342164,1.508982988,0.223694,0,0,352.4,3.7,-0.6,0,0,1092,1024,1024,1024,352.8,0,99,4.269,4.267,4.27,4.276,0,0,6.849,91.22,424.9505005,4.593176,6,P-GPS,
10200,5/2/2019 19:26,-3.251881289,-72.90724084,4.593176,424.9505005,0.223694,1.55042984,16,5,17.084,424.9505005,4.593176,1.342164,1.55042984,0.223694,0,0,352.5,3.2,-0.7,0,0,1472,1024,1024,1024,352.8,0,99,4.269,4.267,4.27,4.276,0,0,6.849,91.22,424.9505005,4.593176,6,P-GPS,
10300,5/2/2019 19:26,-3.251881157,-72.90724087,4.593176,424.9505005,0.223694,1.594484959,16,5,17.051,424.9505005,4.593176,1.342164,1.594484959,0,0,0,352.2,2.6,-0.8,0,0,1484,1024,1024,1024,352.8,0,99,4.255,4.256,4.263,4.277,0,0,6.984,91.22,424.9505005,4.593176,6,P-GPS,
10400,5/2/2019 19:26,-3.251881265,-72.90724076,4.593176,424.9505005,0,1.56632879,17,5,17.051,424.9505005,4.593176,1.342164,1.594484959,0,0,0,352.2,-1.4,-0.6,0,0,1484,1024,1024,1024,352.8,0,99,4.255,4.256,4.263,4.277,0,0,6.984,91.22,424.9505005,4.593176,6,P-GPS,
10500,5/2/2019 19:26,-3.251881141,-72.90724078,4.593176,424.9505005,0.223694,1.607837978,17,5,17.051,424.9505005,4.593176,1.342164,1.607837978,0.223694,0,0,352.2,-8.1,-0.8,0,0,1488,1024,1024,1024,352.8,0,99,4.255,4.256,4.263,4.277,0,0,6.984,91.22,424.9505005,4.593176,6,P-GPS,
10600,5/2/2019 19:26,-3.251880841,-72.9072406,4.593176,424.9505005,0.671082,1.731138507,17,5,17.051,424.9505005,4.593176,1.342164,1.731138507,0.671082,0,0,352.4,-12.6,-0.9,0,0,1486,1024,1024,1024,352.8,0,99,4.255,4.256,4.263,4.277,0,0,6.984,91.22,424.9505005,4.593176,6,P-GPS,
10700,5/2/2019 19:26,-3.251880398,-72.90724064,4.593176,424.9505005,1.11847,1.883713971,17,5,17.051,424.9505005,4.593176,1.342164,1.883713971,1.11847,0,0,352.4,-14.8,-1,0,0,1481,1024,1024,1024,352.8,0,99,4.255,4.256,4.263,4.277,0,0,6.984,91.22,424.9505005,4.593176,6,P-GPS,
10800,5/2/2019 19:26,-3.251879639,-72.9072407,4.593176,424.9505005,1.8119214,2.147890489,17,5,17.051,424.9505005,4.593176,1.8119214,2.147890489,1.789552,-0.223694,0,352.5,-15.7,-1,0,0,1479,1024,1024,1024,352.8,0,99,4.255,4.256,4.263,4.277,0,0,6.984,91.22,424.9505005,4.593176,6,P-GPS,
10900,5/2/2019 19:26,-3.251878721,-72.90724079,4.593176,424.9505005,2.23694,2.470364252,17,5,17.051,424.9505005,4.593176,2.23694,2.470364252,2.23694,-0.223694,0,352.5,-15.6,-0.9,0,0,1466,1024,1024,1024,352.8,0,99,4.255,4.256,4.263,4.277,0,0,6.984,91.22,424.9505005,4.593176,6,P-GPS,
11000,5/2/2019 19:26,-3.251877684,-72.90724099,4.593176,424.9505005,2.908022,2.833782899,17,5,17.051,424.9505005,4.593176,2.908022,2.833782899,2.908022,-0.223694,0,352.5,-15.6,-0.8,0,0,1406,1024,1024,1024,352.8,0,99,4.255,4.256,4.263,4.277,0,0,6.984,91.22,424.9505005,4.593176,6,P-GPS,
11100,5/2/2019 19:26,-3.251876302,-72.9072412,4.593176,424.9505005,3.6014734,3.327723204,17,5,17.051,424.9505005,4.593176,3.6014734,3.327723204,3.579104,-0.447388,0,351.5,-15.3,-0.9,0,0,1324,1024,1024,1024,352.8,0,99,4.255,4.256,4.263,4.277,0,0,6.984,91.22,424.9505005,4.593176,6,P-GPS,
11200,5/2/2019 19:26,-3.251874746,-72.90724189,4.593176,424.9505005,4.0488614,3.884547368,17,5,17.051,424.9505005,4.593176,4.0488614,3.884547368,4.026492,-0.447388,0,350.9,-13.4,-1.2,0,0,1167,1024,1024,1024,352.8,0,99,4.255,4.256,4.263,4.277,0,0,6.984,91.22,424.9505005,4.593176,6,P-GPS,
11300,5/2/2019 19:26,-3.251872939,-72.90724222,4.593176,424.9505005,4.5186188,4.544947652,17,5,17.074,424.9505005,4.593176,4.5186188,4.544947652,4.47388,-0.671082,0,350.1,-10.3,-1.3,0,0,1187,1024,1024,1024,352.8,0,99,4.265,4.267,4.27,4.274,0,0,7.059,91.22,424.9505005,4.593176,6,P-GPS,
11400,5/2/2019 19:26,-3.251871396,-72.90724284,4.593176,424.9505005,4.9660068,5.117454232,17,5,17.074,424.9505005,4.593176,4.9660068,5.117454232,4.921268,-0.671082,0,349.5,-5.6,-1.3,0,0,1275,1024,1024,1024,352.8,0,99,4.265,4.267,4.27,4.274,0,0,7.059,91.22,424.9505005,4.593176,6,P-GPS,
11500,5/2/2019 19:26,-3.251869393,-72.90724326,4.593176,424.9505005,5.0107456,5.857480502,17,5,17.074,424.9505005,4.593176,5.0107456,5.857480502,4.921268,-0.894776,0,348.7,-1.3,-1.3,0,0,1295,1024,1024,1024,352.8,0,99,4.265,4.267,4.27,4.274,0,0,7.059,91.22,424.9505005,4.593176,6,P-GPS,
11600,5/2/2019 19:26,-3.251867678,-72.90724435,4.593176,424.9505005,5.0107456,6.522867663,17,5,17.074,424.9505005,4.593176,5.0107456,6.522867663,4.921268,-0.894776,0,348,0.2,-1.2,0,0,1296,1024,1024,1024,352.8,0,99,4.265,4.267,4.27,4.274,0,0,7.059,91.22,424.9505005,4.593176,6,P-GPS,
11700,5/2/2019 19:26,-3.251865697,-72.90724484,4.593176,424.9505005,5.0107456,7.263386059,17,5,17.074,424.9505005,4.593176,5.0107456,7.263386059,4.921268,-0.894776,0,347.6,0.1,-1.1,0,0,1288,1024,1024,1024,352.8,0,99,4.265,4.267,4.27,4.274,0,0,7.059,91.22,424.9505005,4.593176,6,P-GPS,
11800,5/2/2019 19:26,-3.251863806,-72.90724605,4.593176,424.9505005,5.0107456,8.016634115,17,5,17.074,424.9505005,4.593176,5.0107456,8.016634115,4.921268,-0.894776,0,347.4,0,-1.7,0,0,1257,1024,1024,732,352.8,0,99,4.265,4.267,4.27,4.274,0,0,7.059,91.22,424.9505005,4.593176,6,P-GPS,
11900,5/2/2019 19:26,-3.251861876,-72.90724663,4.593176,424.9505005,5.0554844,8.748655136,17,5,17.074,424.9505005,4.593176,5.0554844,8.748655136,4.921268,-1.11847,0,347.5,0,-2.2,0,0,1171,1024,1024,549,352.8,0,99,4.265,4.267,4.27,4.274,0,0,7.059,91.22,424.9505005,4.593176,6,P-GPS,
12000,5/2/2019 19:26,-3.25186035,-72.90724781,4.593176,424.9505005,4.8317904,9.383628909,17,5,17.074,424.9505005,4.593176,5.0554844,9.383628909,4.697574,-1.11847,0,347.2,-0.5,-1.5,0,0,1084,1024,1024,548,351.5,0,99,4.265,4.267,4.27,4.274,0,0,7.059,91.22,424.9505005,4.593176,6,P-GPS,
12100,5/2/2019 19:26,-3.251858523,-72.9072485,4.593176,424.9505005,4.8317904,10.09038746,17,5,17.074,424.9505005,4.593176,5.0554844,10.09038746,4.697574,-1.11847,0,344.2,0.2,0.1,0,0,1084,1024,1024,548,348.8,0,99,4.265,4.267,4.27,4.274,0,0,7.059,91.22,424.9505005,4.593176,6,P-GPS,
12200,5/2/2019 19:26,-3.251856757,-72.90724912,4.593176,424.9505005,4.6752046,10.77017751,16,5,17.074,424.9505005,4.593176,5.0554844,10.77017751,4.47388,-1.342164,0,340.1,1.9,0.2,0,0,1047,1024,1024,521,345.8,0,99,4.265,4.267,4.27,4.274,0,0,7.059,91.22,424.9505005,4.593176,6,P-GPS,
12300,5/2/2019 19:26,-3.251855013,-72.90724979,4.593176,424.9505005,4.6752046,11.44645706,16,5,17.074,424.9505005,4.593176,5.0554844,11.44645706,4.47388,-1.342164,0,335.8,2.9,-0.6,0,0,1061,1024,1024,443,342.3,0,99,4.265,4.267,4.27,4.274,0,0,7.059,91.22,424.9505005,4.593176,6,P-GPS,
12400,5/2/2019 19:26,-3.251853161,-72.90725065,4.593176,424.9505005,4.250186,12.18041378,17,5,17.086,424.9505005,4.593176,5.0554844,12.18041378,4.026492,-1.342164,0,331.5,3.2,-1.4,0,0,1053,1024,1024,364,338.8,0,99,4.266,4.268,4.27,4.274,0,0,6.753,91.22,424.9505005,4.593176,6,P-GPS,
12500,5/2/2019 19:26,-3.251851534,-72.90725131,4.593176,424.9505005,4.250186,12.8159781,17,5,17.086,424.9505005,4.593176,5.0554844,12.8159781,4.026492,-1.342164,0,327.3,2.8,-1.6,0,0,1044,1024,1024,364,333.9,0,99,4.266,4.268,4.27,4.274,0,0,6.753,91.22,424.9505005,4.593176,6,P-GPS,
12600,5/2/2019 19:26,-3.251849918,-72.90725194,4.265092,424.6224165,4.026492,13.44534164,17,5,17.086,424.9505005,4.593176,5.0554844,13.44534164,3.802798,-1.342164,0,321.7,2.6,-1.2,0,0,1037,1024,1024,374,327.9,0,99,4.266,4.268,4.27,4.274,0,0,6.753,91.22,424.6224165,4.265092,6,P-GPS,
12700,5/2/2019 19:26,-3.251848405,-72.90725257,4.265092,424.6224165,3.8251674,14.03914087,17,5,17.086,424.9505005,4.593176,5.0554844,14.03914087,3.579104,-1.342164,0,315.8,3.1,-1.4,0,0,1280,1024,1024,601,321.9,0,99,4.266,4.268,4.27,4.274,0,0,6.753,91.22,424.6224165,4.265092,6,P-GPS,
12800,5/2/2019 19:26,-3.251846713,-72.90725308,4.265092,424.6224165,3.8251674,14.68362908,17,5,17.086,424.9505005,4.593176,5.0554844,14.68362908,3.579104,-1.342164,0,309.5,8.7,-5.5,0,0,1479,1024,1024,1024,316.6,0,99,4.266,4.268,4.27,4.274,0,0,6.753,91.22,424.6224165,4.265092,6,P-GPS,
12900,5/2/2019 19:26,-3.251845374,-72.90725362,4.265092,424.6224165,3.3330406,15.20800574,17,5,17.086,424.9505005,4.593176,5.0554844,15.20800574,3.131716,-1.11847,0,304.9,7.7,-6.9,0,0,1481,1024,1024,1024,314.9,0,99,4.266,4.268,4.27,4.274,0,0,6.753,91.22,424.6224165,4.265092,6,P-GPS,
13000,5/2/2019 19:26,-3.25184434,-72.90725424,4.265092,424.6224165,2.908022,15.63323541,16,5,17.086,424.9505005,4.593176,5.0554844,15.63323541,2.684328,-1.11847,0,303.8,0.9,-6,0,0,1481,1024,1024,1024,314.9,0,99,4.266,4.268,4.27,4.274,0,0,6.753,91.22,424.6224165,4.265092,6,P-GPS,
13100,5/2/2019 19:26,-3.25184328,-72.90725478,4.265092,424.6224165,2.7066974,16.06043358,16,5,17.086,424.9505005,4.593176,5.0554844,16.06043358,2.460634,-1.11847,0,303.6,-6.5,-4.6,0,0,1337,1024,1024,1024,314.9,0,99,4.266,4.268,4.27,4.274,0,0,6.753,91.22,424.6224165,4.265092,6,P-GPS,
13200,5/2/2019 19:26,-3.251842227,-72.90725505,4.265092,424.6224165,2.9974996,16.45738242,17,5,17.086,424.9505005,4.593176,5.0554844,16.45738242,2.684328,-1.342164,0,303.4,-8.9,-3.3,0,0,1475,1024,1024,1024,314.9,0,99,4.266,4.268,4.27,4.274,0,0,6.753,91.22,424.6224165,4.265092,6,P-GPS,
13300,5/2/2019 19:26,-3.251841152,-72.9072558,4.265092,424.6224165,3.2211936,16.91177876,17,5,17.086,424.9505005,4.593176,5.0554844,16.91177876,2.684328,-1.789552,0,303,-6.7,-2.7,0,0,1486,1024,1024,1024,314.9,0,99,4.266,4.268,4.27,4.274,0,0,6.753,91.22,424.6224165,4.265092,6,P-GPS,
13400,5/2/2019 19:26,-3.251839864,-72.90725618,4.265092,424.6224165,3.35541,17.40232995,16,5,17.061,424.9505005,4.593176,5.0554844,17.40232995,2.684328,-2.013246,0,303,-6.8,-2.5,0,0,1483,1024,1024,1024,314.9,0,99,4.26,4.261,4.267,4.272,0,0,6.923,91.22,424.6224165,4.265092,6,P-GPS,
13500,5/2/2019 19:26,-3.251838744,-72.90725708,4.265092,424.6224165,3.6685816,17.89065018,16,5,17.061,424.9505005,4.593176,5.0554844,17.89065018,2.908022,-2.23694,0,302.9,-10.1,-2.5,0,0,1483,1024,1024,1024,314.9,0,99,4.26,4.261,4.267,4.272,0,0,6.923,91.22,424.6224165,4.265092,6,P-GPS,
13600,5/2/2019 19:26,-3.251837417,-72.90725779,4.265092,424.6224165,3.802798,18.43087329,17,5,17.061,424.9505005,4.593176,5.0554844,18.43087329,2.908022,-2.460634,0,303,-12.8,-2.3,0,0,1483,1024,1024,1024,314.9,0,99,4.26,4.261,4.267,4.272,0,0,6.923,91.22,424.6224165,4.265092,6,P-GPS,
13700,5/2/2019 19:26,-3.251836151,-72.90725896,4.265092,424.6224165,4.2725554,19.00456098,17,5,17.061,424.9505005,4.593176,5.0554844,19.00456098,3.131716,-2.908022,0,302.9,-14.3,-2.3,0,0,1483,1024,1024,1024,314.9,0,99,4.26,4.261,4.267,4.272,0,0,6.923,91.22,424.6224165,4.265092,6,P-GPS,
13800,5/2/2019 19:26,-3.251835098,-72.90726005,4.265092,424.6224165,4.7423128,19.49963973,16,5,17.061,424.9505005,4.593176,5.0554844,19.49963973,3.35541,-3.35541,0,302.8,-14.7,-2,0,0,1483,1024,1024,1024,314.9,0,99,4.26,4.261,4.267,4.272,0,0,6.923,91.22,424.6224165,4.265092,6,P-GPS,
13900,5/2/2019 19:26,-3.25183368,-72.90726156,4.265092,424.6224165,5.2120702,20.17568962,16,5,17.061,424.9505005,4.593176,5.2120702,20.17568962,3.579104,-3.802798,0,302.9,-14.6,-1.7,0,0,1483,1024,1024,1024,314.9,0,99,4.26,4.261,4.267,4.272,0,0,6.923,91.22,424.6224165,4.265092,6,P-GPS,
14000,5/2/2019 19:26,-3.251832171,-72.90726322,4.265092,424.6224165,5.704197,20.90810434,17,5,17.061,424.9505005,4.593176,5.704197,20.90810434,3.802798,-4.250186,0,302.9,-14.6,-1.8,0,0,1479,1024,1024,1024,314.9,0,99,4.26,4.261,4.267,4.272,0,0,6.923,91.22,424.6224165,4.265092,6,P-GPS,
14100,5/2/2019 19:26,-3.251830562,-72.90726509,4.265092,424.6224165,5.704197,21.70951513,17,5,17.061,424.9505005,4.593176,5.704197,21.70951513,4.026492,-4.697574,0,302.8,-14.5,-2.1,0,0,1480,1024,1024,1024,314.9,0,99,4.26,4.261,4.267,4.272,0,0,6.923,91.22,424.6224165,4.265092,6,P-GPS,
14200,5/2/2019 19:26,-3.251828768,-72.90726695,4.265092,424.6224165,6.6660812,22.57857684,17,5,17.061,424.9505005,4.593176,6.6660812,22.57857684,4.250186,-5.144962,0,302.9,-14.3,-2.1,0,0,1479,1024,1024,1024,314.9,0,99,4.26,4.261,4.267,4.272,0,0,6.923,91.22,424.6224165,4.265092,6,P-GPS,
14300,5/2/2019 19:26,-3.25182697,-72.90726914,4.265092,424.6224165,7.158208,23.50584065,17,5,17.061,424.9505005,4.593176,7.158208,23.50584065,4.47388,-5.59235,0,303,-14.2,-2.3,0,0,1477,1024,1024,1024,314.9,0,99,4.26,4.261,4.267,4.272,0,0,6.923,91.22,424.6224165,4.265092,6,P-GPS,
14400,5/2/2019 19:26,-3.251825134,-72.90727133,4.265092,424.6224165,7.4713796,24.45233018,16,5,17.064,424.9505005,4.593176,7.4713796,24.45233018,4.697574,-5.816044,0,302.9,-13.9,-2.4,0,0,1476,1024,1024,1024,314.9,0,99,4.262,4.264,4.267,4.271,0,0,7.006,91.22,424.6224165,4.265092,6,P-GPS,
14500,5/2/2019 19:26,-3.251823168,-72.90727383,4.265092,424.6224165,7.9635064,25.50105068,16,5,17.064,424.9505005,4.593176,7.9635064,25.50105068,4.921268,-6.263432,0,302.8,-13.4,-2.5,0,0,1477,1024,1024,1024,314.9,0,99,4.262,4.264,4.267,4.271,0,0,7.006,91.22,424.6224165,4.265092,6,P-GPS,
14600,5/2/2019 19:26,-3.251821265,-72.90727637,4.265092,424.6224165,8.4556332,26.54517801,16,5,17.064,424.9505005,4.593176,8.4556332,26.54517801,5.144962,-6.71082,0,302.7,-12.8,-2.5,0,0,1477,1024,1024,1024,314.9,0,99,4.262,4.264,4.267,4.271,0,0,7.006,91.22,424.6224165,4.265092,6,P-GPS,
14700,5/2/2019 19:26,-3.251819165,-72.90727915,4.265092,424.6224165,8.7688048,27.7043644,16,5,17.064,424.9505005,4.593176,8.7688048,27.7043644,5.368656,-6.934514,0,302.7,-12.3,-2.5,0,0,1477,1024,1024,1024,314.9,0,99,4.262,4.264,4.267,4.271,0,0,7.006,91.22,424.6224165,4.265092,6,P-GPS,
14800,5/2/2019 19:26,-3.251817455,-72.90728204,4.265092,424.6224165,9.1267152,28.76971877,16,5,17.064,424.9505005,4.593176,9.1267152,28.76971877,5.368656,-7.381902,0,302.6,-12.1,-2.4,0,0,1475,1024,1024,1024,314.9,0,99,4.262,4.264,4.267,4.271,0,0,7.006,91.22,424.6224165,4.265092,6,P-GPS,
14900,5/2/2019 19:26,-3.251815281,-72.90728506,4.265092,424.6224165,9.4398868,30.01725818,16,5,17.064,424.9505005,4.593176,9.4398868,30.01725818,5.59235,-7.605596,0,302.6,-11.9,-2.6,0,0,1476,1024,1024,1024,314.9,0,99,4.262,4.264,4.267,4.271,0,0,7.006,91.22,424.6224165,4.265092,6,P-GPS,
15000,5/2/2019 19:26,-3.251812832,-72.90728809,4.265092,424.6224165,9.7530584,31.36046688,16,5,17.064,424.9505005,4.593176,9.7530584,31.36046688,5.816044,-7.82929,0,302.8,-11.8,-2.2,0,0,1474,1024,1024,1024,314.9,0,99,4.262,4.264,4.267,4.271,0,0,7.006,91.22,424.6224165,4.265092,6,P-GPS,
15100,5/2/2019 19:26,-3.251810535,-72.90729134,4.265092,424.6224165,10.1109688,32.70577532,16,5,17.064,424.9505005,4.593176,10.1109688,32.70577532,5.816044,-8.276678,0,302.7,-11.7,-2.2,0,0,1474,1024,1024,1024,314.9,0,99,4.262,4.264,4.267,4.271,0,0,7.006,91.22,424.6224165,4.265092,6,P-GPS,
15200,5/2/2019 19:26,-3.251808069,-72.90729456,4.265092,424.6224165,10.4241404,34.10531605,16,5,17.064,424.9505005,4.593176,10.4241404,34.10531605,6.039738,-8.500372,0,302.8,-11.5,-2.1,0,0,1474,1024,1024,1024,314.9,0,99,4.262,4.264,4.267,4.271,0,0,7.006,91.22,424.6224165,4.265092,6,P-GPS,
15300,5/2/2019 19:26,-3.251805651,-72.90729799,4.265092,424.6224165,10.737312,35.5416678,16,5,17.064,424.9505005,4.593176,10.737312,35.5416678,6.263432,-8.724066,0,302.7,-11.3,-2.1,0,0,1472,1024,1040,1024,314.9,0,99,4.262,4.264,4.267,4.271,0,0,7.006,91.22,424.6224165,4.265092,6,P-GPS,
15400,5/2/2019 19:26,-3.251802823,-72.90730132,4.265092,424.6224165,10.9162672,37.08595919,16,5,17.064,424.9505005,4.593176,10.9162672,37.08595919,6.263432,-8.94776,0,302.9,-10.9,-2.2,0,0,1470,1024,1145,1024,314.9,0,99,4.262,4.264,4.267,4.271,0,0,7.006,91.22,424.6224165,4.265092,6,P-GPS,
15500,5/2/2019 19:26,-3.251800261,-72.90730491,4.265092,424.6224165,11.2294388,38.61187788,16,5,17.07,424.9505005,4.593176,11.2294388,38.61187788,6.487126,-9.171454,0,302.8,-10.5,-2.6,0,0,1463,1024,1150,1024,314.9,0,99,4.263,4.265,4.269,4.273,0,0,6.722,91.22,424.6224165,4.265092,6,P-GPS,
15600,5/2/2019 19:26,-3.251797418,-72.90730856,4.265092,424.6224165,11.408394,40.23786218,17,5,17.07,424.9505005,4.593176,11.408394,40.23786218,6.487126,-9.395148,0,302.7,-10.1,-2.7,0,0,1461,1024,1144,1024,314.9,0,99,4.263,4.265,4.269,4.273,0,0,6.722,91.22,424.6224165,4.265092,6,P-GPS,
15700,5/2/2019 19:26,-3.251794751,-72.9073123,4.265092,424.6224165,11.7215656,41.83956827,17,5,17.07,424.9505005,4.593176,11.7215656,41.83956827,6.71082,-9.618842,0,302.8,-9.7,-2.6,0,0,1461,1024,1176,1024,314.9,0,99,4.263,4.265,4.269,4.273,0,0,6.722,91.22,424.6224165,4.265092,6,P-GPS,
15800,5/2/2019 19:26,-3.25179176,-72.90731615,4.265092,424.6224165,11.7215656,43.56200927,17,5,17.07,424.9505005,4.593176,11.7215656,43.56200927,6.71082,-9.618842,0,302.8,-9.2,-2.7,0,0,1461,1024,1261,1024,314.9,0,99,4.263,4.265,4.269,4.273,0,0,6.722,91.22,424.6224165,4.265092,6,P-GPS,
15900,5/2/2019 19:26,-3.251788989,-72.90732002,4.265092,424.6224165,12.0347372,45.23228491,17,5,17.07,424.9505005,4.593176,12.0347372,45.23228491,6.934514,-9.842536,0,302.9,-9,-2.8,0,0,1416,1024,1351,1024,314.9,0,99,4.263,4.265,4.269,4.273,0,0,6.722,91.22,424.6224165,4.265092,6,P-GPS,
16000,5/2/2019 19:26,-3.251786434,-72.90732366,4.593176,424.9505005,12.0347372,46.79330858,17,5,17.07,424.9505005,4.593176,12.0347372,46.79330858,6.934514,-10.06623,-0.223694,302.9,-8.5,-2.7,0,0,1416,1024,1351,1024,314.9,0,99,4.263,4.265,4.269,4.273,0,0,6.722,91.22,424.9505005,4.593176,6,P-GPS,
16100,5/2/2019 19:26,-3.25178362,-72.90732761,4.593176,424.9505005,12.526864,48.50393856,17,5,17.07,424.9505005,4.593176,12.526864,48.50393856,7.158208,-10.289924,-0.671082,302.9,-7.2,-2.6,0,0,1367,1024,1273,1024,314.9,0,99,4.263,4.265,4.269,4.273,0,0,6.722,91.22,424.9505005,4.593176,6,P-GPS,
16200,5/2/2019 19:26,-3.251780516,-72.90733185,4.593176,424.9505005,12.526864,50.36548718,17,5,17.07,424.9505005,4.593176,12.526864,50.36548718,7.158208,-10.289924,-1.342164,302.8,-5.5,-2.8,0,0,1257,1024,1072,1024,314.9,0,99,4.263,4.265,4.269,4.273,0,0,6.722,91.22,424.9505005,4.593176,6,P-GPS,
16300,5/2/2019 19:26,-3.25177764,-72.90733589,4.92126,425.2785845,12.526864,52.12172083,17,5,17.07,425.2785845,4.92126,12.526864,52.12172083,7.158208,-10.289924,-1.565858,302.8,-4.3,-3.4,0,0,1280,1024,1195,1024,314.9,0,99,4.263,4.265,4.269,4.273,0,0,6.722,91.22,425.2785845,4.92126,6,P-GPS,
16400,5/2/2019 19:26,-3.25177483,-72.9073401,4.92126,425.2785845,12.526864,53.90321695,17,5,17.07,425.2785845,4.92126,12.526864,53.90321695,7.158208,-10.289924,-1.11847,302.7,-2.5,-3.7,0,0,1312,1024,1363,1024,314.9,0,99,4.263,4.265,4.269,4.273,0,0,6.722,91.22,425.2785845,4.92126,6,P-GPS,
16500,5/2/2019 19:26,-3.251772008,-72.90734412,5.249344,425.6066685,12.415017,55.64731149,17,5,17.072,425.6066685,5.249344,12.526864,55.64731149,6.934514,-10.289924,-0.671082,302.6,0.7,-3.5,0,0,1314,1024,1368,1024,314.9,0,99,4.261,4.268,4.269,4.273,0,0,6.744,91.4,425.6066685,5.249344,6,P-GPS,
16600,5/2/2019 19:26,-3.251769567,-72.90734781,5.249344,425.6066685,12.1018454,57.20899133,17,5,17.072,425.6066685,5.249344,12.526864,57.20899133,6.71082,-10.06623,-0.671082,302.5,3.4,-2.8,0,0,1277,1024,1376,1024,314.9,0,99,4.261,4.268,4.269,4.273,0,0,6.744,91.4,425.6066685,5.249344,6,P-GPS,
16700,5/2/2019 19:26,-3.251766911,-72.90735164,5.249344,425.6066685,11.6097186,58.86745595,17,5,17.072,425.6066685,5.249344,12.526864,58.86745595,6.487126,-9.618842,-1.342164,302.5,3.8,-2,0,0,1203,1024,1389,1024,314.9,0,99,4.261,4.268,4.269,4.273,0,0,6.744,91.4,425.6066685,5.249344,6,P-GPS,
16800,5/2/2019 19:26,-3.251764552,-72.90735503,5.577428,425.9347525,11.408394,60.33792844,17,5,17.072,425.9347525,5.577428,12.526864,60.33792844,6.487126,-9.395148,-1.565858,302.6,2.5,-2.1,0,0,1190,1024,1397,1024,314.9,0,99,4.261,4.268,4.269,4.273,0,0,6.744,91.4,425.9347525,5.577428,6,P-GPS,
16900,5/2/2019 19:26,-3.251762045,-72.9073586,5.905512,426.2628365,11.0952224,61.8950151,17,5,17.072,426.2628365,5.905512,12.526864,61.8950151,6.263432,-9.171454,-1.789552,302.6,2.9,-2.6,0,0,1175,1024,1365,1024,314.9,0,99,4.261,4.268,4.269,4.273,0,0,6.744,91.4,426.2628365,5.905512,6,P-GPS,
17000,5/2/2019 19:26,-3.25175939,-72.90736234,6.233596,426.5909205,10.8044202,63.53477894,17,5,17.072,426.5909205,6.233596,12.526864,63.53477894,6.039738,-8.94776,-2.23694,302.5,4.2,-3,0,0,1308,1024,1289,1024,314.9,0,99,4.261,4.268,4.269,4.273,0,0,6.744,91.4,426.5909205,6.233596,6,P-GPS,
17100,5/2/2019 19:26,-3.251757002,-72.90736572,6.56168,426.9190045,10.4241404,65.01640628,17,5,17.072,426.9190045,6.56168,12.526864,65.01640628,6.039738,-8.500372,-2.23694,302.5,4.9,-3.3,0,0,1397,1024,1302,1024,314.9,0,99,4.261,4.268,4.269,4.273,0,0,6.744,91.4,426.9190045,6.56168,6,P-GPS,
17200,5/2/2019 19:26,-3.25175442,-72.90736913,6.889764,427.2470885,10.1109688,66.55708874,16,5,17.072,427.2470885,6.889764,12.526864,66.55708874,5.816044,-8.276678,-2.013246,302.5,4.7,-3.6,0,0,1397,1024,1370,1024,314.9,0,99,4.261,4.268,4.269,4.273,0,0,6.744,91.4,427.2470885,6.889764,6,P-GPS,
17300,5/2/2019 19:26,-3.251752143,-72.90737232,7.217848,427.5751725,9.7977972,67.96358485,16,5,17.072,427.5751725,7.217848,12.526864,67.96358485,5.59235,-8.052984,-1.565858,302.6,2.5,-4,0,0,1341,1024,1454,1024,314.9,0,99,4.261,4.268,4.269,4.273,0,0,6.744,91.4,427.5751725,7.217848,6,P-GPS,
17400,5/2/2019 19:26,-3.25175006,-72.90737517,7.217848,427.5751725,9.618842,69.23162951,16,5,17.072,427.5751725,7.217848,12.526864,69.23162951,5.59235,-7.82929,-1.565858,302.6,0.6,-3.2,0,0,1267,1024,1455,1024,314.9,0,99,4.261,4.268,4.269,4.273,0,0,6.744,91.4,427.5751725,7.217848,6,P-GPS,
17500,5/2/2019 19:26,-3.251747896,-72.9073782,7.545932,427.9032565,9.618842,70.57054032,16,5,17.072,427.9032565,7.545932,12.526864,70.57054032,5.368656,-7.82929,-2.013246,302.6,-0.5,-2.7,0,0,1202,1024,1451,1024,314.9,0,99,4.261,4.268,4.269,4.273,0,0,6.744,91.4,427.9032565,7.545932,6,P-GPS,
17600,5/2/2019 19:26,-3.251746031,-72.90738136,7.874016,428.2313405,9.3056704,71.86319128,16,5,17.131,428.2313405,7.874016,12.526864,71.86319128,5.368656,-7.605596,-2.684328,302.7,0,-2.8,0,0,1186,1024,1432,1024,314.9,0,99,4.236,4.232,4.231,4.239,0,0,7.286,91.4,428.2313405,7.874016,6,P-GPS,
17700,5/2/2019 19:26,-3.251743966,-72.9073843,8.530184,428.8875085,9.3056704,73.15321756,16,5,17.131,428.8875085,8.530184,12.526864,73.15321756,5.144962,-7.381902,-3.131716,302.7,1.5,-3.3,0,0,1205,1024,1384,1024,314.9,0,99,4.236,4.232,4.231,4.239,0,0,7.286,91.4,428.8875085,8.530184,6,P-GPS,
17800,5/2/2019 19:26,-3.251742457,-72.90738698,8.858268,429.2155925,8.6793272,74.23458243,16,5,17.131,429.2155925,8.858268,12.526864,74.23458243,4.921268,-7.158208,-3.131716,302.6,2.7,-3.6,0,0,1357,1024,1265,1024,314.9,0,99,4.236,4.232,4.231,4.239,0,0,7.286,91.4,429.2155925,8.858268,6,P-GPS,
17900,5/2/2019 19:26,-3.251740558,-72.90738976,9.514436,429.8717605,8.6793272,75.44127538,16,5,17.131,429.8717605,9.514436,12.526864,75.44127538,4.921268,-7.158208,-3.131716,302.7,3.3,-3.7,0,0,1458,1024,1344,1024,314.9,0,99,4.236,4.232,4.231,4.239,0,0,7.286,91.4,429.8717605,9.514436,6,P-GPS,
18000,5/2/2019 19:26,-3.251738823,-72.90739245,9.84252,430.1998445,8.3661556,76.58596046,16,5,17.131,430.1998445,9.84252,12.526864,76.58596046,4.697574,-6.934514,-2.684328,302.7,2.3,-3.9,0,0,1458,1024,1344,1024,314.9,0,99,4.236,4.232,4.231,4.239,0,0,7.286,91.4,430.1998445,9.84252,6,P-GPS,
18100,5/2/2019 19:26,-3.251737033,-72.90739509,10.170604,430.5279285,8.1872004,77.7313017,16,5,17.131,430.5279285,10.170604,12.526864,77.7313017,4.697574,-6.71082,-2.013246,302.8,-1.4,-3.9,0,0,1620,1024,1513,1024,314.9,0,99,4.236,4.232,4.231,4.239,0,0,7.286,91.4,430.5279285,10.170604,6,P-GPS,
18200,5/2/2019 19:26,-3.251735202,-72.90739801,10.498688,430.8560125,8.1872004,78.9596482,16,5,17.131,430.8560125,10.498688,12.526864,78.9596482,4.697574,-6.71082,-2.013246,302.9,-5.5,-3,0,0,1677,1024,1566,1024,314.9,0,99,4.236,4.232,4.231,4.239,0,0,7.286,91.4,430.8560125,10.498688,6,P-GPS,
18300,5/2/2019 19:26,-3.251733427,-72.90740071,10.826772,431.1840965,8.3661556,80.11680046,16,5,17.131,431.1840965,10.826772,12.526864,80.11680046,4.697574,-6.934514,-2.684328,303,-11.2,-2.7,0,0,1680,1024,1614,1024,314.9,0,99,4.236,4.232,4.231,4.239,0,0,7.286,91.4,431.1840965,10.826772,6,P-GPS,
18400,5/2/2019 19:26,-3.251731774,-72.9074032,11.48294,431.8402645,8.8806518,81.18963514,16,5,17.131,431.8402645,11.48294,12.526864,81.18963514,4.921268,-7.381902,-3.579104,303.2,-18.1,-2.1,0,0,1684,1024,1622,1024,314.9,0,99,4.236,4.232,4.231,4.239,0,0,7.286,91.4,431.8402645,11.48294,6,P-GPS,
18500,5/2/2019 19:26,-3.251729787,-72.90740627,11.811024,432.1683485,9.9991218,82.49967456,16,5,17.131,432.1683485,11.811024,12.526864,82.49967456,5.59235,-8.276678,-4.47388,303.4,-21.9,-1.9,0,0,1684,1024,1622,1024,314.9,0,99,4.236,4.232,4.231,4.239,0,0,7.286,91.4,432.1683485,11.811024,6,P-GPS,
18600,5/2/2019 19:26,-3.251727592,-72.90740958,12.795276,433.1526005,10.9833754,83.92454337,16,5,16.776,433.1526005,12.795276,12.526864,83.92454337,6.039738,-9.171454,-5.368656,303.6,-22,-2.7,0,0,1684,1024,1622,1024,314.9,0,98,4.191,4.19,4.195,4.199,0,0,9.655,91.4,433.1526005,12.795276,6,P-GPS,
18700,5/2/2019 19:26,-3.251725136,-72.90741339,13.779528,434.1368525,12.1018454,85.5498715,16,5,16.776,434.1368525,13.779528,12.526864,85.5498715,6.71082,-10.06623,-6.263432,303.3,-20.6,-2.9,0,0,1684,1024,1631,1024,314.9,0,98,4.191,4.19,4.195,4.199,0,0,9.655,91.4,434.1368525,13.779528,6,P-GPS,
18800,5/2/2019 19:26,-3.25172279,-72.90741733,14.76378,435.1211045,12.7729274,87.18372982,17,5,16.776,435.1211045,14.76378,12.7729274,87.18372982,6.934514,-10.737312,-6.71082,303.2,-19.8,-3.3,0,0,1677,1024,1632,1024,314.9,0,98,4.191,4.19,4.195,4.199,0,0,9.655,91.4,435.1211045,14.76378,6,P-GPS,
18900,5/2/2019 19:26,-3.251720028,-72.90742172,15.748032,436.1053565,13.5782258,89.04298185,17,5,16.776,436.1053565,15.748032,13.5782258,89.04298185,7.381902,-11.408394,-6.934514,303.1,-19.6,-3,0,0,1675,1024,1659,1024,314.9,0,98,4.191,4.19,4.195,4.199,0,0,9.655,91.4,436.1053565,15.748032,6,P-GPS,
19000,5/2/2019 19:26,-3.251717124,-72.90742613,17.060368,437.4176925,14.2716772,90.94193204,17,5,16.776,437.4176925,17.060368,14.2716772,90.94193204,7.605596,-12.079476,-7.158208,303,-19.4,-2.6,0,0,1675,1024,1659,1024,314.9,0,98,4.191,4.19,4.195,4.199,0,0,9.655,91.4,437.4176925,17.060368,6,P-GPS,
19100,5/2/2019 19:26,-3.251714074,-72.90743102,18.04462,438.4019445,15.0769756,93.00886124,17,5,16.776,438.4019445,18.04462,15.0769756,93.00886124,8.052984,-12.750558,-7.381902,302.8,-19.3,-2.2,0,0,1684,1024,1684,1024,314.9,0,98,4.191,4.19,4.195,4.199,0,0,9.655,91.4,438.4019445,18.04462,6,P-GPS,
19200,5/2/2019 19:26,-3.251711189,-72.90743575,19.028872,439.3861965,15.5691024,94.99081669,17,5,16.776,439.3861965,19.028872,15.5691024,94.99081669,8.276678,-13.197946,-7.82929,302.8,-18.9,-1.9,0,0,1684,1024,1684,1024,314.9,0,98,4.191,4.19,4.195,4.199,0,0,9.655,91.4,439.3861965,19.028872,6,P-GPS,
19300,5/2/2019 19:26,-3.251707878,-72.90744109,20.341208,440.6985325,16.3744008,97.24672227,17,5,16.776,440.6985325,20.341208,16.3744008,97.24672227,8.724066,-13.869028,-8.276678,302.8,-18.3,-1.7,0,0,1684,1024,1684,1024,314.9,0,98,4.191,4.19,4.195,4.199,0,0,9.655,91.4,440.6985325,20.341208,6,P-GPS,
19400,5/2/2019 19:26,-3.251704455,-72.90744668,21.653544,442.0108685,17.000744,99.59875647,17,5,16.776,442.0108685,21.653544,17.000744,99.59875647,9.171454,-14.316416,-8.724066,303,-18.4,-1.5,0,0,1684,1024,1684,1024,314.9,0,98,4.191,4.19,4.195,4.199,0,0,9.655,91.4,442.0108685,21.653544,6,P-GPS,
19500,5/2/2019 19:26,-3.251700896,-72.90745241,22.96588,443.3232045,17.4928708,102.0219849,17,5,16.776,443.3232045,22.96588,17.4928708,102.0219849,9.395148,-14.763804,-8.724066,303.1,-19.3,-1.8,0,0,1684,1024,1684,1024,314.9,0,98,4.191,4.19,4.195,4.199,0,0,9.655,91.4,443.3232045,22.96588,6,P-GPS,
19600,5/2/2019 19:26,-3.251697052,-72.90745821,24.278216,444.6355405,18.007367,104.5357645,17,5,16.844,444.6355405,24.278216,18.007367,104.5357645,9.618842,-15.211192,-8.724066,303.2,-20.6,-1.7,0,0,1684,1024,1684,1024,314.9,0,98,4.203,4.206,4.214,4.221,0,0,11.349,91.58,444.6355405,24.278216,6,P-GPS,
19700,5/2/2019 19:26,-3.251693247,-72.90746424,25.262468,445.6197925,18.6113408,107.1059746,17,5,16.844,445.6197925,25.262468,18.6113408,107.1059746,10.06623,-15.65858,-8.724066,303.1,-21.4,-1.9,0,0,1684,1024,1684,1024,314.9,0,98,4.203,4.206,4.214,4.221,0,0,11.349,91.58,445.6197925,25.262468,6,P-GPS,
19800,5/2/2019 19:26,-3.251688666,-72.90747105,26.574804,446.9321285,19.1034676,110.0757909,17,5,16.844,446.9321285,26.574804,19.1034676,110.0757909,10.289924,-16.105968,-8.724066,303.2,-21.5,-2.4,0,0,1684,1024,1684,1024,314.9,0,98,4.203,4.206,4.214,4.221,0,0,11.349,91.58,446.9321285,26.574804,6,P-GPS,
19900,5/2/2019 19:26,-3.251684532,-72.90747751,27.88714,448.2444645,19.908766,112.8444918,17,5,16.844,448.2444645,27.88714,19.908766,112.8444918,10.737312,-16.77705,-8.724066,303.2,-21.1,-2.7,0,0,1684,1024,1628,1024,314.9,0,98,4.203,4.206,4.214,4.221,0,0,11.349,91.58,448.2444645,27.88714,6,P-GPS,
20000,5/2/2019 19:26,-3.251680411,-72.90748385,29.52756,449.8848845,20.4232622,115.5771034,17,5,16.844,449.8848845,29.52756,20.4232622,115.5771034,10.961006,-17.224438,-8.724066,303.3,-20.7,-2.6,0,0,1684,1024,1628,1024,314.9,0,98,4.203,4.206,4.214,4.221,0,0,11.349,91.58,449.8848845,29.52756,6,P-GPS,
20100,5/2/2019 19:26,-3.251676066,-72.90749062,30.511812,450.8691365,20.4232622,118.4839277,17,5,16.844,450.8691365,30.511812,20.4232622,118.4839277,11.1847,-17.671826,-8.724066,303.3,-20.7,-2.6,0,0,1684,1024,1108,1024,314.9,0,98,4.203,4.206,4.214,4.221,0,0,11.349,91.58,450.8691365,30.511812,6,P-GPS,
20200,5/2/2019 19:26,-3.25167151,-72.90749753,31.824148,452.1814725,21.027236,121.4786784,17,5,16.844,452.1814725,31.824148,21.027236,121.4786784,11.408394,-17.671826,-8.052984,303.3,-21.5,-3,0,0,1605,1024,1024,1024,314.9,0,98,4.203,4.206,4.214,4.221,0,0,11.349,91.58,452.1814725,31.824148,6,P-GPS,
20300,5/2/2019 19:26,-3.251666984,-72.90750449,33.136484,453.4938085,21.3404076,124.4832717,17,5,16.844,453.4938085,33.136484,21.3404076,124.4832717,11.632088,-17.89552,-7.158208,303.3,-22,-3.4,0,0,1504,1024,1024,1024,314.9,0,98,4.203,4.206,4.214,4.221,0,0,11.349,91.58,453.4938085,33.136484,6,P-GPS,
20400,5/2/2019 19:26,-3.251662123,-72.90751167,34.120736,454.4780605,21.6535792,127.6269726,17,5,16.844,454.4780605,34.120736,21.6535792,127.6269726,11.855782,-18.119214,-6.487126,303.3,-18.7,-3.8,0,0,1491,1024,1024,1024,314.9,0,98,4.203,4.206,4.214,4.221,0,0,11.349,91.58,454.4780605,34.120736,6,P-GPS,
20500,5/2/2019 19:26,-3.251657469,-72.90751873,35.104988,455.4623125,21.6535792,130.6925895,17,5,16.844,455.4623125,35.104988,21.6535792,130.6925895,11.855782,-18.119214,-5.59235,303.2,-14,-3.7,0,0,1596,1024,1024,1024,314.9,0,98,4.203,4.206,4.214,4.221,0,0,11.349,91.58,455.4623125,35.104988,6,P-GPS,
20600,5/2/2019 19:26,-3.251652696,-72.90752596,35.761156,456.1184805,21.6535792,133.8323534,17,5,16.844,456.1184805,35.761156,21.6535792,133.8323534,11.855782,-18.119214,-4.921268,303.1,-12.3,-4.1,0,0,1684,1024,1024,1024,314.9,0,98,4.203,4.206,4.214,4.221,0,0,11.349,91.58,456.1184805,35.761156,6,P-GPS,
20700,5/2/2019 19:26,-3.251648013,-72.90753301,36.417324,456.7746485,21.6535792,136.9028915,17,5,17.066,456.7746485,36.417324,21.6535792,136.9028915,11.855782,-18.119214,-4.026492,303.3,-16.1,-4.5,0,0,1684,1024,1024,1024,314.9,0,98,4.26,4.264,4.269,4.274,0,0,7.822,91.58,456.7746485,36.417324,6,P-GPS,
20800,5/2/2019 19:26,-3.251642672,-72.90754081,37.073492,457.4308165,21.6535792,140.3356344,17,5,17.066,457.4308165,37.073492,21.6535792,140.3356344,11.855782,-18.119214,-2.908022,303.6,-21.5,-4.9,0,0,1684,1024,1024,1024,314.9,0,98,4.26,4.264,4.269,4.274,0,0,7.822,91.58,457.4308165,37.073492,6,P-GPS,
20900,5/2/2019 19:26,-3.251637884,-72.90754795,37.401576,457.7589005,21.7654262,143.454729,17,5,17.066,457.7589005,37.401576,21.7654262,143.454729,12.079476,-18.119214,-2.013246,303.7,-23.8,-4.7,0,0,1684,1024,1024,1024,314.9,0,98,4.26,4.264,4.269,4.274,0,0,7.822,91.58,457.7589005,37.401576,6,P-GPS,
21000,5/2/2019 19:26,-3.251633351,-72.90755454,37.72966,458.0869845,21.9667508,146.3625375,17,5,17.066,458.0869845,37.72966,21.9667508,146.3625375,12.079476,-18.342908,-1.11847,303.6,-24,-4.3,0,0,1684,1024,1024,1024,314.9,0,98,4.26,4.264,4.269,4.274,0,0,7.822,91.58,458.0869845,37.72966,6,P-GPS,
21100,5/2/2019 19:26,-3.251628472,-72.90756178,37.72966,458.0869845,22.2799224,149.5315008,17,5,17.066,458.0869845,37.72966,22.2799224,149.5315008,12.30317,-18.566602,-0.447388,303.6,-23.6,-4.1,0,0,1684,1024,1024,1024,314.9,0,98,4.26,4.264,4.269,4.274,0,0,7.822,91.58,458.0869845,37.72966,6,P-GPS,
21200,5/2/2019 19:26,-3.251623503,-72.90756937,37.72966,458.0869845,22.593094,152.8221834,17,5,17.066,458.0869845,37.72966,22.593094,152.8221834,12.526864,-18.790296,-0.223694,303.5,-23.5,-4.3,0,0,1684,1024,1024,1024,314.9,0,98,4.26,4.264,4.269,4.274,0,0,7.822,91.58,458.0869845,37.72966,6,P-GPS,
